address,latitude,longitude
"OLSON MEMORIAL HWY / MORGAN AVE N Minneapolis, MN",44.98428,-93.30452
"37TH AVE N / 6TH ST N Minneapolis, MN",45.02212,-93.28652
"DUNWOODY BLVD / HENNEPIN AV S Minneapolis, MN",44.97182,-93.28801
"2744 LYNDALE AVE S Minneapolis, MN",44.95243,-93.28849
"730 30TH AVE N Minneapolis, MN",45.011572,-93.289299
"1502 11TH AVE N Minneapolis, MN",44.989225,-93.300509
"PORTLAND AVE / 46TH ST E Minneapolis, MN",44.91974,-93.26769
"PENN AVE N / 21ST AVE N Minneapolis, MN",45.00058,-93.30821
"1401 26TH AVE NE Minneapolis, MN",45.01524,-93.23947
"3502 14TH AVE S Minneapolis, MN",44.9394,-93.25531
"5357 28TH AVE S Minneapolis, MN",44.905485,-93.231937
"4200 CEDAR AVE S Minneapolis, MN",44.92676,-93.24771
"1530 EAST MINNEHAHA PKWY Minneapolis, MN",44.91509,-93.25217
"25TH ST E / 10TH AVE S Minneapolis, MN",44.95735,-93.26004
"6TH ST N / 11TH AVE N Minneapolis, MN",44.98931,-93.28621
"LYNDALE AVE S / LAKE ST W Minneapolis, MN",44.94837,-93.28809
"DOWLING AVE N / HUMBOLDT AVE N Minneapolis, MN",45.02402,-93.29817
"41ST AVE N / LYNDALE AVE N Minneapolis, MN",45.02937,-93.2881
"WASHINGTON AVE S / 5TH AVE S Minneapolis, MN",44.97881,-93.26141
"39TH ST E / 12TH AVE S Minneapolis, MN",44.93234,-93.25745
"38TH ST E / CHICAGO AVE Minneapolis, MN",44.93416,-93.26248
"1717 LAKE ST E Minneapolis, MN",44.94825333,-93.24904683
"26TH ST W / HENNEPIN AVE Minneapolis, MN",44.95551,-93.29685
"46TH ST E / CHICAGO AVE Minneapolis, MN",44.91973,-93.26258
"19TH AVE NE / FILLMORE ST NE Minneapolis, MN",45.00795,-93.24227
"15TH ST W / LASALLE AVE Minneapolis, MN",44.9677,-93.27934
"FREMONT AVE S / LAGOON AVE Minneapolis, MN",44.94925,-93.29572
"1614 GIRARD AVE N Minneapolis, MN",44.99578,-93.29675
"27TH AVE NE / UNIVERSITY AVE NE Minneapolis, MN",45.01679,-93.26321
"BLAISDELL AVE / 34TH ST W Minneapolis, MN",44.94133,-93.27973
"418 13TH AVE SE Minneapolis, MN",44.981518,-93.236505
"5605 BLOOMINGTON AVE Minneapolis, MN",44.90131,-93.25224
"28TH ST W / BLAISDELL AVE Minneapolis, MN",44.95194,-93.27967
"27TH ST W / LYNDALE AVE S Minneapolis, MN",44.95374,-93.28807
"24TH ST W / BLAISDELL AVE Minneapolis, MN",44.9591,-93.27961
"14TH AVE SE / 5TH ST SE Minneapolis, MN",44.98149,-93.23501
"9TH ST E / 29TH AVE S Minneapolis, MN",44.96399,-93.22986
"4655 EMERSON AVE N Minneapolis, MN",45.040084,-93.29544117
"LOWRY AVE N / LYNDALE AVE N Minneapolis, MN",45.01312,-93.28801
"2829 UNIVERSITY AVE SE Minneapolis, MN",44.971677,-93.215895
"UNIVERSITY AVE NE / HENNEPIN AVE E Minneapolis, MN",44.98797,-93.25635
"2525 9TH ST S Minneapolis, MN",44.96394503,-93.23564432
"LASALLE AVE / GROVELAND AVE Minneapolis, MN",44.96417,-93.27932
"CHICAGO AVE / 31ST ST E Minneapolis, MN",44.94664,-93.26265
"5430 34TH AVE S Minneapolis, MN",44.90448217,-93.22323933
"21ST AVE S / 9TH ST S Minneapolis, MN",44.964,-93.2425
"10TH AVE SE / UNIVERSITY AVE SE Minneapolis, MN",44.98172,-93.24211
"1515 22ND AVE N Minneapolis, MN",45.00126,-93.299673
"27TH ST W / PLEASANT AVE Minneapolis, MN",44.95373,-93.28296
"222 HENNEPIN AVE E Minneapolis, MN",44.987673,-93.256634
"1ST AVE S / 46TH ST E Minneapolis, MN",44.91966,-93.27667
"2709 ESSEX ST SE Minneapolis, MN",44.97051,-93.21927
"PARK AVE / 10TH ST S Minneapolis, MN",44.96968,-93.26458
"22ND ST W / LYNDALE AVE S Minneapolis, MN",44.96089,-93.28803
"3643 PENN AVE N Minneapolis, MN",45.02173317,-93.30860283
"18TH ST E / 1ST AVE S Minneapolis, MN",44.9652,-93.27655
"2907 RUSSELL AVE N Minneapolis, MN",45.00987,-93.31113
"PORTLAND AVE / FRANKLIN AVE E Minneapolis, MN",44.96269,-93.26767
"2505 PENN AVE N Minneapolis, MN",45.004894,-93.308671
"COLFAX AVE S / FRANKLIN AVE W Minneapolis, MN",44.96272,-93.29179
"LOWRY AVE NE / CENTRAL AVE NE Minneapolis, MN",45.01316,-93.24736
"LAKE ST W / ALDRICH AVE S Minneapolis, MN",44.94836,-93.28936
"16TH ST E / PORTLAND AVE Minneapolis, MN",44.96716,-93.26767
"UPTON AVE N / 43RD AVE N Minneapolis, MN",45.03339,-93.31491
"1416 RUSSELL AVE N Minneapolis, MN",44.993812,-93.310415
"1815 UPTON AVE N Minneapolis, MN",44.99828,-93.31495
"CHICAGO AVE / LAKE ST E Minneapolis, MN",44.94837,-93.26265
"1819 RUSSELL AVE N Minneapolis, MN",44.99827,-93.31113
"EXCELSIOR BLVD / LAKE ST W Minneapolis, MN",44.94839,-93.31777
"STEVENS AVE / 26TH ST E Minneapolis, MN",44.95552,-93.27532
"3416 4TH AVE S Minneapolis, MN",44.940279,-93.270488
"LYNDALE AVE S / GROVELAND AVE Minneapolis, MN",44.96708,-93.28786
"2535 15TH AVE S Minneapolis, MN",44.956182,-93.253343
"35TH ST E / HIAWATHA AVE Minneapolis, MN",44.93953,-93.23247
"5813 43RD AVE S Minneapolis, MN",44.89767,-93.211137
"SPRING ST NE / GODWARD ST NE Minneapolis, MN",44.99521,-93.21404
"FRANKLIN AVE E / 3RD AVE S Minneapolis, MN",44.96269,-93.27276
"EMERSON AVE N / DOWLING AVE N Minneapolis, MN",45.02399,-93.29436
"HOOVER ST NE AND TRAFFIC ST NE Minneapolis, MN",44.99237,-93.21771
"12TH AVE N / THOMAS AVE N Minneapolis, MN",44.99008,-93.31335
"620 OLSON MEMORIAL HWY Minneapolis, MN",44.98495,-93.28656
"19TH AVE S / RIVERSIDE AVE Minneapolis, MN",44.96954,-93.24567
"27TH ST E / PORTLAND AVE S Minneapolis, MN",44.95373,-93.2677
"2020 JAMES AVE N Minneapolis, MN",45.00039,-93.30115
"EAST MINNEHAHA PKWY / NOKOMIS AVE S Minneapolis, MN",44.91604,-93.22837
"RUSSELL AVE N / LOWRY AVE N Minneapolis, MN",45.01326,-93.31079
"1200 UNIVERSITY AVE SE Minneapolis, MN",44.98122335,-93.24096252
"WASHBURN AVE N / PLYMOUTH AVE N Minneapolis, MN",44.99154,-93.31719
"3001 HENNEPIN AVE Minneapolis, MN",44.947589,-93.297654
"1540 NEW BRIGHTON BLVD Minneapolis, MN",45.005106,-93.23242
"38TH ST E / HIAWATHA AVE Minneapolis, MN",44.93411,-93.22876
"JAMES AVE N / OLSON MEMORIAL HWY Minneapolis, MN",44.98452,-93.30062
"3445 BLAISDELL AVE Minneapolis, MN",44.939983,-93.279225
"2530 UNIVERSITY AVE NE Minneapolis, MN",45.01421,-93.26353
"15TH ST E / 1ST AVE S Minneapolis, MN",44.96803,-93.27644
"MARQUETTE AVE / 12TH ST S Minneapolis, MN",44.97141,-93.2749
"225 15TH ST W Minneapolis, MN",44.967458,-93.282179
"44TH ST E / MINNEHAHA AVE Minneapolis, MN",44.92333,-93.21674
"LAKE ST E / 47TH AVE S Minneapolis, MN",44.94836,-93.20638
"BROADWAY AVE W / DUPONT AVE N Minneapolis, MN",45.01063,-93.316035
"2445 3RD AVE S Minneapolis, MN",44.95826,-93.27213
"COLFAX AVE S / LINCOLN AVE Minneapolis, MN",44.96441,-93.29179
"60TH ST E / PORTLAND AVE Minneapolis, MN",44.89431,-93.26781
"2400 BLOCK ALDRICH AVE S Minneapolis, MN",44.95892,-93.289662
"2310 DUPONT AVE N Minneapolis, MN",45.00304,-93.29233
"4TH ST TO WB I94 S / SB I35W TO WB I94 Minneapolis, MN",44.97901917,-93.26493835
"105 35TH ST W Minneapolis, MN",44.939289,-93.28014
"1711 PLYMOUTH AVE N Minneapolis, MN",44.9912845,-93.30253217
"42ND ST E / 3RD AVE S Minneapolis, MN",44.92683,-93.27275
"36TH AVE N / PENN AVE N Minneapolis, MN",45.02045,-93.30828
"7TH ST NE / CENTRAL AVE NE Minneapolis, MN",44.99107,-93.25146
"22 27TH AVE SE Minneapolis, MN",44.965323,-93.219929
"36TH AVE N / FREMONT AVE N Minneapolis, MN",45.02036,-93.2956
"4553 NICOLLET AVE Minneapolis, MN",44.919977,-93.277582
"3200 WASHINGTON AVE N Minneapolis, MN",45.013315,-93.2814
"2954 LOGAN AVE N Minneapolis, MN",45.011161,-93.302801
"NICOLLET AVE / FRANKLIN AVE W Minneapolis, MN",44.96269,-93.2778
"2ND AVE S / 46TH ST E Minneapolis, MN",44.91968,-93.27411
"WASHINGTON AVE N / 22ND AVE N Minneapolis, MN",45.00144,-93.28177
"22ND AVE S / LAKE ST E Minneapolis, MN",44.94838,-93.24034
"ALDRICH AVE N / BROADWAY AVE W Minneapolis, MN",44.99914,-93.28952
"4604 XERXES AVE S Minneapolis, MN",44.91944,-93.31925
"11TH AVE SE / 2ND ST SE Minneapolis, MN",44.98038,-93.24192
"1415 THOMAS AVE N Minneapolis, MN",44.99383,-93.31371
"15TH ST W / NICOLLET AVE Minneapolis, MN",44.96771,-93.2778
"NICOLLET AVE / 25TH ST W Minneapolis, MN",44.95731,-93.27784
"6050 NICOLLET AVE Minneapolis, MN",44.892574,-93.2786
"1330 VINCENT AVE N Minneapolis, MN",44.992526,-93.315546
"34TH ST E / PORTLAND AVE Minneapolis, MN",44.94138,-93.26765
"LASALLE AVE / 12TH ST S Minneapolis, MN",44.97263,-93.27778
"26TH AVE S / 22ND ST E Minneapolis, MN",44.96096,-93.23459
"MALCOLM AVE SE / ORLIN AVE SE Minneapolis, MN",44.96848,-93.21403
"10TH ST S / HENNEPIN AVE Minneapolis, MN",44.97577,-93.27796
"2872 26TH AVE S Minneapolis, MN",44.95053,-93.23782
"4635 LYNDALE AVE N Minneapolis, MN",45.03955883,-93.28756667
"4130 16TH AVE S Minneapolis, MN",44.92766,-93.25146
"3542 PENN AVE N Minneapolis, MN",45.01993,-93.3079
"2544 LYNDALE AVE N Minneapolis, MN",45.00530264,-93.28791101
"31ST ST W / COLFAX AVE S Minneapolis, MN",44.9466,-93.29195
"24TH ST W / LYNDALE AVE S Minneapolis, MN",44.9591,-93.28802
"25TH ST W / BRYANT AVE S Minneapolis, MN",44.95732,-93.29057
"4TH AVE N / 1ST ST N Minneapolis, MN",44.98695,-93.27126
"1920 1ST ST S Minneapolis, MN",44.975848,-93.244739
"3116 12TH AVE S Minneapolis, MN",44.94595,-93.25795
"8TH ST S / PARK AVE Minneapolis, MN",44.97189,-93.26352
"24TH AVE NE / CENTRAL AVE NE Minneapolis, MN",45.01217,-93.24737
"598 1ST AVE N Minneapolis, MN",44.98028382,-93.27395951
"12TH AVE S / 31ST ST E Minneapolis, MN",44.94654,-93.25755
"2127 PENN AVE N Minneapolis, MN",45.00142,-93.30856
"2920 38TH ST E Minneapolis, MN",44.93427,-93.230078
"2220 BROADWAY AVE W Minneapolis, MN",45.004348,-93.308465
"3RD AVE S / 41ST ST E Minneapolis, MN",44.92873,-93.27273
"4TH ST N / BROADWAY AVE W Minneapolis, MN",44.99913,-93.28493
"GROVELAND AVE / DELL PL Minneapolis, MN",44.96574,-93.28541
"28TH ST E / CHICAGO AVE Minneapolis, MN",44.95195,-93.26264
"3532 BRYANT AVE S Minneapolis, MN",44.93845,-93.291038
"34TH ST E / CHICAGO AVE Minneapolis, MN",44.94138,-93.26257
"29TH AVE NE / TYLER ST NE Minneapolis, MN",45.02039,-93.24607
"22ND AVE NE / CENTRAL AVE NE Minneapolis, MN",45.00988,-93.24736
"11 4TH ST S Minneapolis, MN",44.98015,-93.27103
"2936 PILLSBURY AVE Minneapolis, MN",44.94931,-93.28184
"38TH ST E / 11TH AVE S Minneapolis, MN",44.93416,-93.25871
"5TH AVE NE / MAIN ST NE Minneapolis, MN",44.99263,-93.26303
"26TH ST W / PILLSBURY AVE Minneapolis, MN",44.95552,-93.2813
"2616 NEWTON AVE N Minneapolis, MN",45.006614,-93.305322
"5TH ST SE / 3RD AVE SE Minneapolis, MN",44.98765,-93.2505
"2601 GRAND ST NE Minneapolis, MN",45.01509,-93.26977
"2602 POLK ST NE Minneapolis, MN",45.01513828,-93.24563361
"35TH AVE N / PENN AVE N Minneapolis, MN",45.01865,-93.30827
"1121 12TH AVE N Minneapolis, MN",44.99032,-93.29588167
"BLAISDELL AVE / 31ST ST W Minneapolis, MN",44.94658,-93.2797
"36TH ST E / PARK AVE Minneapolis, MN",44.93776,-93.26505
"2636 29TH AVE S Minneapolis, MN",44.954214,-93.230386
"13TH AVE NE / MAIN ST NE Minneapolis, MN",45.00089,-93.26765
"2835 1ST AVE S Minneapolis, MN",44.95039,-93.27617
"2610 LYNDALE AVE S Minneapolis, MN",44.954996,-93.288468
"35TH AVE S / 28TH ST E Minneapolis, MN",44.95195,-93.22164
"1701 RUSSELL AVE N Minneapolis, MN",44.99712,-93.31113
"32ND ST E / 3RD AVE S Minneapolis, MN",44.94497,-93.27282
"FRANKLIN AVE E / PARK AVE Minneapolis, MN",44.9627,-93.26511
"31ST ST E / 4TH AVE S Minneapolis, MN",44.94665,-93.27029
"2420 BROADWAY AVE W Minneapolis, MN",45.00577483,-93.31081117
"2322 WASHINGTON AVE N Minneapolis, MN",45.003392,-93.281119
"1815 GARFIELD ST NE Minneapolis, MN",45.00643783,-93.233042
"PLYMOUTH AVE N / WASHINGTON AVE N Minneapolis, MN",44.992,-93.28146
"33RD AVE N / HUMBOLDT AVE N Minneapolis, MN",45.01499,-93.29811
"HENNEPIN AVE / FRANKLIN AVE W Minneapolis, MN",44.96271,-93.291615
"1311 16TH AVE N Minneapolis, MN",44.99494,-93.29793
"CEDAR AVE S / 28TH ST E Minneapolis, MN",44.95196,-93.24741
"2001 21ST AVE N Minneapolis, MN",44.99997,-93.30609
"EM STATELY ST / CEDAR AVE S Minneapolis, MN",44.95646,-93.24735
"500 18TH ST E Minneapolis, MN",44.72739503,-92.84612343
"1113 FRANKLIN AVE E Minneapolis, MN",44.962451,-93.257646
"3640 33RD AVE S Minneapolis, MN",44.936429,-93.224573
"24TH ST E / 17TH AVE S Minneapolis, MN",44.95913,-93.24985
"38TH ST E / 27TH AVE S Minneapolis, MN",44.93412,-93.23337
"3600 THOMAS AVE N Minneapolis, MN",45.02062732,-93.31328715
"CENTRAL AVE NE / BROADWAY ST NE Minneapolis, MN",44.99864,-93.24723
"2735 HENNEPIN AVE Minneapolis, MN",44.95276044,-93.29799467
"2601 LYNDALE AVE S Minneapolis, MN",44.955331,-93.287654
"MARQUETTE AVE / 2ND ST S Minneapolis, MN",44.98209,-93.26602
"UNIVERSITY AVE SE / MALCOLM AVE SE Minneapolis, MN",44.9701,-93.21275
"BLAISDELL AVE / 35TH ST W Minneapolis, MN",44.93953,-93.27975
"2700 14TH AVE S Minneapolis, MN",44.95361,-93.25534
"30TH AVE S / LAKE ST E Minneapolis, MN",44.94839,-93.22843
"42ND ST W / LYNDALE AVE S Minneapolis, MN",44.92678,-93.28829
"35TH ST E / PORTLAND AVE Minneapolis, MN",44.93959,-93.26763
"686 BROADWAY ST NE Minneapolis, MN",44.99846,-93.253205
"1818 LOWRY AVE N Minneapolis, MN",45.013425,-93.302782
"2409 BRYANT AVE N Minneapolis, MN",45.00412,-93.29144
"425 BROADWAY AVE W Minneapolis, MN",44.998781,-93.285204
"20TH AVE NE / CENTRAL AVE NE Minneapolis, MN",45.00888,-93.24737
"5034 OLIVER AVE N Minneapolis, MN",45.046752,-93.307545
"4151 FREMONT AVE N Minneapolis, MN",45.03142517,-93.29605717
"PENN AVE S / CEDAR LAKE RD S Minneapolis, MN",44.9737,-93.30837
"1026 LOGAN AVE N Minneapolis, MN",44.988743,-93.302858
"3531 GIRARD AVE N Minneapolis, MN",45.01948,-93.2972
"46TH ST E / 4TH AVE S Minneapolis, MN",44.91972,-93.27025
"24TH AVE NE / WASHINGTON ST NE Minneapolis, MN",45.01217,-93.25673
"CEDAR AVE S / 26TH ST E Minneapolis, MN",44.95554,-93.24737
"46TH AVE N / LYNDALE AVE N Minneapolis, MN",45.03852,-93.28751
"WASHINGTON AVE S / 35W Minneapolis, MN",44.97900998,-93.26190501
"325 FRANKLIN AVE E Minneapolis, MN",44.962463,-93.271293
"1310 QUINCY ST NE Minneapolis, MN",45.0011735,-93.25157933
"NICOLLET AVE / 27TH ST E Minneapolis, MN",44.95373,-93.27788
"48TH AVE S / 54TH ST E Minneapolis, MN",44.90538,-93.20505
"53RD AVE N / DUPONT AVE N Minneapolis, MN",45.05112,-93.29408
"LAKE ST E / 2ND AVE S Minneapolis, MN",44.94838,-93.27413
"3149 41ST AVE S Minneapolis, MN",44.94532,-93.21364
"2019 42ND ST E Minneapolis, MN",44.926719,-93.242537
"4346 KNOX AVE N Minneapolis, MN",45.035013,-93.301888
"28TH ST E / 5TH AVE S Minneapolis, MN",44.95194,-93.26899
"29TH AVE N / NEWTON AVE N Minneapolis, MN",45.0096,-93.30571
"5TH ST N / 8TH AVE N Minneapolis, MN",44.9863,-93.28197
"3910 EMERSON AVE N Minneapolis, MN",45.026144,-93.29404
"STEVENS AVE / 27TH ST E Minneapolis, MN",44.95371,-93.27533
"3701 COLFAX AVE N Minneapolis, MN",45.02228,-93.29218
"CHICAGO AVE / EAST MINNEHAHA PKWY Minneapolis, MN",44.91139,-93.26265
"27TH ST E / 2ND AVE S Minneapolis, MN",44.95371,-93.27406
"50TH ST W / BRYANT AVE S Minneapolis, MN",44.91232,-93.29079
"2740 MINNEHAHA AVE Minneapolis, MN",44.951691,-93.237399
"516 2ND AVE N Minneapolis, MN",44.981122,-93.275746
"1000 ALDRICH AVE N Minneapolis, MN",44.988135,-93.290362
"1814 NICOLLET AVE Minneapolis, MN",44.964926,-93.277976
"34TH ST E / CEDAR AVE S Minneapolis, MN",44.94133,-93.24738
"5933 XERXES AVE S Minneapolis, MN",44.89518,-93.31847
"123 LAKE ST W Minneapolis, MN",44.94808,-93.28086
"3030 NICOLLET AVE Minneapolis, MN",44.947018,-93.278427
"2ND ST N / 21ST AVE N Minneapolis, MN",45.00025,-93.2802
"4TH ST SE / 5TH AVE SE Minneapolis, MN",44.98548,-93.24827
"712 43RD ST W Minneapolis, MN",44.92513,-93.28907
"2 THEODORE WIRTH PKWY Minneapolis, MN",44.97736538,-93.32604926
"32ND ST E / 16TH AVE S Minneapolis, MN",44.94474,-93.25121
"929 5TH ST SE Minneapolis, MN",44.984017,-93.240761
"4149 FREMONT AVE N Minneapolis, MN",45.031392,-93.296008
"3115 LOGAN AVE N Minneapolis, MN",45.012705,-93.303552
"2922 ALDRICH AVE S Minneapolis, MN",44.94889,-93.28974
"424 4TH ST S Minneapolis, MN",44.9776,-93.2629
"2700 COLFAX AVE N Minneapolis, MN",45.00792,-93.29152
"MEMORIAL PKWY / HUMBOLDT AVE N Minneapolis, MN",45.03692,-93.29906
"715 8TH ST S Minneapolis, MN",44.971445,-93.263101
"88 6TH ST S Minneapolis, MN",44.97773,-93.270264
"5320 LYNDALE AVE S Minneapolis, MN",44.90605,-93.28872
"1070 22ND AVE SE Minneapolis, MN",44.990271,-93.221172
"16TH ST E / CHICAGO AVE Minneapolis, MN",44.96715,-93.26254
"NICOLLET AVE / 46TH ST W Minneapolis, MN",44.91963,-93.27795
"31ST ST W / GARFIELD AVE Minneapolis, MN",44.94659,-93.28684
"6TH ST S / MARQUETTE AVE Minneapolis, MN",44.97727,-93.2701
"3121 LAKE ST E Minneapolis, MN",44.948119,-93.22608
"2801 WAYZATA BLVD S Minneapolis, MN",44.969784,-93.316266
"50TH ST W / PENN AVE S Minneapolis, MN",44.91236,-93.30872
"25TH ST E / PARK AVE Minneapolis, MN",44.95732,-93.26512
"110 4TH ST S Minneapolis, MN",44.97927,-93.26766
"2826 MORGAN AVE N Minneapolis, MN",45.00945083,-93.30433133
"300 WASHINGTON AVE N Minneapolis, MN",44.98498,-93.272526
"1433 WEST RIVER RD N Minneapolis, MN",44.993741,-93.27741
"46TH ST E / STEVENS AVE Minneapolis, MN",44.91967,-93.27536
"10TH ST S / 2ND AVE S Minneapolis, MN",44.9728,-93.27193
"PENN AVE N / GOLDEN VALLEY RD Minneapolis, MN",44.99876,-93.30821
"3800 PORTLAND AVE Minneapolis, MN",44.934,-93.26796
"3510 GARFIELD AVE Minneapolis, MN",44.93905,-93.28724
"4TH ST SE / 7TH AVE SE Minneapolis, MN",44.98436,-93.24549
"38TH ST E / PARK AVE Minneapolis, MN",44.93417,-93.265
"41ST AVE N / FREMONT AVE N Minneapolis, MN",45.02957,-93.29576
"PORTLAND AVE / 9TH ST S Minneapolis, MN",44.97148,-93.26573
"WASHINGTON AVE N / LOWRY AVE N Minneapolis, MN",45.01311,-93.28185
"GRAND AVE S / 36TH ST W Minneapolis, MN",44.9377,-93.28433
"LAKE ST W / FREMONT AVE S Minneapolis, MN",44.94837,-93.29575
"17TH AVE NE / 3RD ST NE Minneapolis, MN",45.00528,-93.26462
"615 JACKSON ST NE Minneapolis, MN",44.99556,-93.249519
"721 28TH ST W Minneapolis, MN",44.95191622,-93.28845964
"15TH ST E / 5TH AVE S Minneapolis, MN",44.96808,-93.26891
"2400 NICOLLET AVE Minneapolis, MN",44.958963,-93.278287
"UNIVERSITY AVE NE / LOWRY AVE NE Minneapolis, MN",45.01319,-93.26314
"2825 OAKLAND AVE Minneapolis, MN",44.95122667,-93.26628
"2340 32ND ST E Minneapolis, MN",44.945496,-93.237546
"31ST ST W / NICOLLET AVE Minneapolis, MN",44.94659,-93.27793
"3800 BRYANT AVE S Minneapolis, MN",44.933193,-93.29211
"LAKE ST W / HARRIET AVE Minneapolis, MN",44.94834,-93.28555
"2804 35TH AVE S Minneapolis, MN",44.95167,-93.22202
"415 CEDAR AVE S Minneapolis, MN",44.96934,-93.24688
"3455 RUSSELL AVE N Minneapolis, MN",45.018425,-93.311168
"1601 4TH ST S Minneapolis, MN",44.97003,-93.24831
"27TH AVE N / QUEEN AVE N Minneapolis, MN",45.0078,-93.30945
"26TH ST E / HIAWATHA AVE Minneapolis, MN",44.95555,-93.24316
"1115 30TH AVE N Minneapolis, MN",45.011169,-93.293959
"3700 COLFAX AVE N Minneapolis, MN",45.022302,-93.291461
"2227 ALDRICH AVE N Minneapolis, MN",45.00232,-93.28994
"717 KENWOOD PKWY Minneapolis, MN",44.96867,-93.29669
"2ND ST N / BROADWAY AVE W Minneapolis, MN",44.99912,-93.28021
"838 GERTRUDE BROWN PL Minneapolis, MN",44.98544,-93.29124
"BRYANT AVE N / BROADWAY AVE W Minneapolis, MN",44.99915,-93.29105
"3216 LAKE ST W Minneapolis, MN",44.949462,-93.319959
"LAKE PL / IRVING AVE S Minneapolis, MN",44.95985,-93.29971
"3330 SHERIDAN AVE N Minneapolis, MN",45.015954,-93.311707
"14TH AVE N / PENN AVE N Minneapolis, MN",44.99306,-93.30822
"3024 29TH AVE S Minneapolis, MN",44.947368,-93.230461
"I35 W / 60 ST E Minneapolis, MN",44.82635,-93.278485
"1221 WASHINGTON AVE S Minneapolis, MN",44.973982,-93.251161
"1500 JAMES AVE N Minneapolis, MN",44.994121,-93.300679
"3827 QUEEN AVE N Minneapolis, MN",45.02486,-93.30998
"626 BROADWAY AVE W Minneapolis, MN",44.99948383,-93.28749233
"XERXES AVE N / 40TH AVE N Minneapolis, MN",45.02772,-93.3186
"32ND ST E / COLUMBUS AVE Minneapolis, MN",44.94473,-93.26388
"126 5TH ST N Minneapolis, MN",44.981233,-93.274373
"2642 JAMES AVE N Minneapolis, MN",45.00729,-93.300259
"916 BROADWAY AVE W Minneapolis, MN",44.999859,-93.292363
"2501 CEDAR AVE S Minneapolis, MN",44.957312,-93.24689917
"2827 ALDRICH AVE N Minneapolis, MN",45.00937,-93.28962
"GIRARD AVE N / 30TH AVE N Minneapolis, MN",45.01133,-93.29686
"38TH ST W / ALDRICH AVE S Minneapolis, MN",44.93408,-93.2895
"1430 SPRUCE PL Minneapolis, MN",44.967879,-93.281239
"21ST ST E / BLOOMINGTON AVE Minneapolis, MN",44.96181,-93.25231
"300 35TH AVE NE Minneapolis, MN",45.03166,-93.26362
"UNIVERSITY AVE SE / 30TH AVE SE Minneapolis, MN",44.97057,-93.21395
"39TH ST E / 45TH AVE S Minneapolis, MN",44.93249,-93.20893
"701 BROADWAY AVE W Minneapolis, MN",44.998214,-93.288638
"2510 LOGAN AVE N Minneapolis, MN",45.005488,-93.302826
"2404 GRAND AVE S Minneapolis, MN",44.958836,-93.284584
"LAKE ST W / GIRARD AVE S Minneapolis, MN",44.94836,-93.29701
"OLSON MEMORIAL HWY / PENN AVE N Minneapolis, MN",44.98428,-93.30832
"BRYANT AVE S / 29TH ST W Minneapolis, MN",44.95003,-93.29063
"PORTLAND AVE / GRANT ST E Minneapolis, MN",44.96961,-93.26732
"LYNDALE AVE S / FRANKLIN AVE W Minneapolis, MN",44.96269,-93.288
"11TH ST S / LASALLE AVE Minneapolis, MN",44.97358,-93.27696
"35TH ST W / IRVING AVE S Minneapolis, MN",44.93951,-93.30218
"2600 DUPONT AVE S Minneapolis, MN",44.955383,-93.293501
"6TH ST N / HENNEPIN AVE Minneapolis, MN",44.97878,-93.27368
"LAKE ST E / PORTLAND AVE Minneapolis, MN",44.94837,-93.26777
"36TH ST RICHFIELD RD Minneapolis, MN",44.93777498,-93.266965
"11TH AVE S / 2ND ST S Minneapolis, MN",44.97638,-93.25233
"JOHNSON ST NE / HENNEPIN AVE E Minneapolis, MN",44.99156,-93.23588
"6012 3RD AVE S Minneapolis, MN",44.89381,-93.27335
"LAKE ST W / BRYANT AVE S Minneapolis, MN",44.94837,-93.29064
"4TH ST SE / CENTRAL AVE SE Minneapolis, MN",44.98778,-93.25405
"36TH AVE N / LOGAN AVE N Minneapolis, MN",45.02043,-93.30316
"4TH AVE S / 4TH ST S Minneapolis, MN",44.97748,-93.26434
"GRAND AVE S / LAKE ST W Minneapolis, MN",44.94835,-93.28429
"3329 UNIVERSITY AVE SE Minneapolis, MN",44.969363,-93.210146
"46TH ST E / 44TH AVE S Minneapolis, MN",44.91979,-93.2102
"3754 QUEEN AVE N Minneapolis, MN",45.02383,-93.30923
"2101 44TH AVE N Minneapolis, MN",45.035196,-93.306195
"3046 BUCHANAN ST NE Minneapolis, MN",45.02358,-93.24004
"3034 LYNDALE AVE S Minneapolis, MN",44.947166,-93.288641
"7TH ST SE / 14TH AVE SE Minneapolis, MN",44.98344,-93.23342
"FRANKLIN AVE SE / WARWICK ST SE Minneapolis, MN",44.96455,-93.21157
"TYLER ST NE / BROADWAY AVE NE Minneapolis, MN",44.99865,-93.24608
"PILLSBURY AVE / 27TH ST W Minneapolis, MN",44.95373,-93.2813
"6101 XERXES AVE S Minneapolis, MN",44.892442,-93.318466
"EMERSON AVE N / 14TH AVE N Minneapolis, MN",44.99305,-93.29411
"35TH ST E / NICOLLET AVE Minneapolis, MN",44.93954,-93.27793
"5300 LYNDALE AVE S Minneapolis, MN",44.90668,-93.288711
"3752 18TH AVE S Minneapolis, MN",44.934375,-93.248962
"14TH AVE SE / UNIVERSITY AVE SE Minneapolis, MN",44.97952,-93.23657
"1313 LOGAN AVE N Minneapolis, MN",44.99204,-93.30354
"900 IRVING AVE N Minneapolis, MN",44.987008,-93.299158
"2621 LAKE ST E Minneapolis, MN",44.948135,-93.233672
"650 POLK ST NE Minneapolis, MN",44.996546,-93.245181
"32ND ST E / CHICAGO AVE Minneapolis, MN",44.94474,-93.26263
"36TH ST W / COLFAX AVE S Minneapolis, MN",44.93768,-93.29204
"1300 EAST MINNEHAHA PKWY Minneapolis, MN",44.91381,-93.255992
"35TH ST E / STEVENS AVE Minneapolis, MN",44.93955,-93.27525
"45TH ST W / NICOLLET AVE Minneapolis, MN",44.92144,-93.27796
"211 GOLDEN VALLEY RD Minneapolis, MN",44.99922726,-93.33990738
"46TH ST W / GRAND AVE S Minneapolis, MN",44.9196,-93.28444
"39TH AVE N / FREMONT AVE N Minneapolis, MN",45.02577,-93.29567
"2001 NICOLLET AVE Minneapolis, MN",44.962435,-93.277574
"10TH AVE N / WASHINGTON AVE N Minneapolis, MN",44.99035,-93.28055
"FRANKLIN AVE W / GARFIELD AVE Minneapolis, MN",44.96269,-93.28675
"515 WASHINGTON AVE N Minneapolis, MN",44.986235,-93.275603
"46TH ST W / LYNDALE AVE S Minneapolis, MN",44.91958,-93.28836
"LOWRY AVE N / QUEEN AVE N Minneapolis, MN",45.01325,-93.30949
"48TH ST E / CHICAGO AVE Minneapolis, MN",44.91612,-93.26262
"2630 ESSEX ST SE Minneapolis, MN",44.97074143,-93.2212277
"LAKE ST W / PILLSBURY AVE Minneapolis, MN",44.94834,-93.28137
"2929 CHICAGO AVE Minneapolis, MN",44.949308,-93.260717
"424 3RD AVE N Minneapolis, MN",44.982394,-93.276045
"3103 FREMONT AVE N Minneapolis, MN",45.01236,-93.29592
"10 LAKE ST W Minneapolis, MN",44.949673,-93.277941
"FRANKLIN AVE W / GRAND AVE S Minneapolis, MN",44.96269,-93.2842
"2413 MONROE ST NE Minneapolis, MN",45.01266,-93.25203
"FRANKLIN AVE E / 24TH AVE S Minneapolis, MN",44.96276,-93.23776
"CEDAR AVE S / EAST MINNEHAHA PKWY Minneapolis, MN",44.91607,-93.24731
"1200 37TH AVE N Minneapolis, MN",45.022359,-93.294715
"2ND ST N / 23RD AVE N Minneapolis, MN",45.00256,-93.2802
"1414 LAKE ST E Minneapolis, MN",44.948588,-93.254259
"2930 BLAISDELL AVE Minneapolis, MN",44.9496895,-93.280584
"815 2ND ST N Minneapolis, MN",44.98966117,-93.2777825
"JOHNSON ST NE / SAINT ANTHONY PKWY Minneapolis, MN",45.02394,-93.23713
"3850 STANDISH AVE Minneapolis, MN",44.93256,-93.24007
"4140 28TH AVE S Minneapolis, MN",44.927482,-93.23249
"21ST AVE N / LYNDALE AVE N Minneapolis, MN",45.00022,-93.28799
"BROADWAY AVE W / PENN AVE N Minneapolis, MN",45.00388,-93.30823
"LYNDALE AVE N / 24TH AVE N Minneapolis, MN",45.00368,-93.28797
"17TH AVE NE / 5TH ST NE Minneapolis, MN",45.00524,-93.26025
"3RD AVE S / 2ND ST S Minneapolis, MN",44.98105,-93.26325
"415 1ST ST N Minneapolis, MN",44.98776667,-93.27177167
"7TH ST S / 11TH AVE S Minneapolis, MN",44.97056,-93.25726
"CEDAR AVE Minneapolis, MN",44.892295,-93.24712
"GROVELAND AVE / PILLSBURY AVE Minneapolis, MN",44.96419,-93.28067
"MARQUETTE AVE / 11TH ST S Minneapolis, MN",44.97237,-93.27411
"50 1ST AVE N Minneapolis, MN",44.98479787,-93.26765341
"28TH ST W / HENNEPIN AVE Minneapolis, MN",44.95192,-93.29828
"120 59TH ST W Minneapolis, MN",44.89575933,-93.28048233
"4TH AVE S / LAKE ST E Minneapolis, MN",44.94835,-93.27031
"BROADWAY ST NE / MARSHALL ST NE Minneapolis, MN",44.9987,-93.26906
"CEDAR AVE S / HIAWATHA AVE TO CEDAR AVE S Minneapolis, MN",44.87098,-93.247695
"4836 BLOOMINGTON AVE Minneapolis, MN",44.914963,-93.25279
"PENN AVE N / PLYMOUTH AVE N Minneapolis, MN",44.99152,-93.30822
"SB I35W TO NEW BRIGHTON BLVD / STINSON BLVD NE Minneapolis, MN",45.04232038,-93.22921557
"11TH AVE S / LAKE ST E Minneapolis, MN",44.94838,-93.25885
"2503 CENTRAL AVE NE Minneapolis, MN",45.013318,-93.247018
"26TH ST E / MINNEHAHA AVE Minneapolis, MN",44.95557,-93.23945
"27TH ST W / DUPONT AVE S Minneapolis, MN",44.95372,-93.29316
"2938 OAKLAND AVE Minneapolis, MN",44.94897,-93.26682
"ALDRICH AVE N / 44TH AVE N Minneapolis, MN",45.03543,-93.2901
"4040 WASHINGTON AVE N Minneapolis, MN",45.028795,-93.284876
"1400 FRANKLIN AVE E Minneapolis, MN",44.9629495,-93.25503
"2621 LYNDALE AVE S Minneapolis, MN",44.954751,-93.287626
"1626 PENN AVE N Minneapolis, MN",44.996172,-93.30785
"48TH AVE N / HUMBOLDT AVE N Minneapolis, MN",45.04206,-93.29924
"42ND AVE N / PENN AVE N Minneapolis, MN",45.03131,-93.30847
"LAKE ST W / DEAN PKWY Minneapolis, MN",44.94932,-93.31549
"2916 LYNDALE AVE S Minneapolis, MN",44.949504,-93.288479
"15 DIAMOND LAKE RD W Minneapolis, MN",44.90378,-93.27876
"LAUREL AVE / 15TH ST N Minneapolis, MN",44.97399,-93.28416
"HENNEPIN AVE / LYNDALE AVE N Minneapolis, MN",44.971935,-93.28801
"4901 49TH AVE N Minneapolis, MN",45.04250594,-93.48613024
"1010 21ST AVE N Minneapolis, MN",45.000462,-93.293249
"BRYANT AVE N / 21ST AVE N Minneapolis, MN",45.00022,-93.29104
"3538 BRYANT AVE N Minneapolis, MN",45.019795,-93.290194
"1404 DOWLING AVE N Minneapolis, MN",45.02413,-93.2972
"301 MAIN ST NE Minneapolis, MN",44.990513,-93.261114
"DUNWOODY BLVD / EMERSON AVE S Minneapolis, MN",44.97201,-93.29143
"2121 16TH AVE S Minneapolis, MN",44.96142167,-93.25036167
"60TH ST W / LYNDALE AVE S Minneapolis, MN",44.89425,-93.28833
"39TH AVE S / 31ST ST E Minneapolis, MN",44.94682,-93.21655
"627 BROADWAY AVE W Minneapolis, MN",44.998903,-93.287672
"23RD AVE NE / CALIFORNIA ST NE Minneapolis, MN",45.01107,-93.2689
"DOUGLAS AVE / HUMBOLDT AVE S Minneapolis, MN",44.96641,-93.29818
"2825 15TH AVE S Minneapolis, MN",44.95107833,-93.25363133
"1017 32ND ST W Minneapolis, MN",44.94448,-93.29271
"3453 NICOLLET AVE Minneapolis, MN",44.939859,-93.277379
"804 27TH AVE NE Minneapolis, MN",45.01657,-93.25052
"UNIVERSITY AVE NE / 37TH AVE NE Minneapolis, MN",45.03554,-93.26288
"HENNEPIN AVE E / JOHNSON ST NE Minneapolis, MN",44.99156,-93.2372
"2621 POLK ST NE Minneapolis, MN",45.01561,-93.24505
"OLIVER AVE N / 33RD AVE N Minneapolis, MN",45.01502,-93.30697
"CHICAGO AVE / FRANKLIN AVE E Minneapolis, MN",44.96271,-93.26255
"5114 CHICAGO AVE Minneapolis, MN",44.910252,-93.263021
"742 MADISON ST NE Minneapolis, MN",44.998129,-93.254081
"COLFAX AVE S / DOUGLAS AVE Minneapolis, MN",44.9664,-93.29179
"3008 BRYANT AVE S Minneapolis, MN",44.94794,-93.291
"LYNDALE AVE N / BROADWAY AVE W Minneapolis, MN",44.99914,-93.28799
"FRANKLIN AVE E / 1ST AVE S Minneapolis, MN",44.96269,-93.27656
"4649 PORTLAND AVE Minneapolis, MN",44.918217,-93.267291
"1419 QUEEN AVE N Minneapolis, MN",44.9939,-93.30985
"WEST LAKE CALHOUN PKWY / 32ND ST W Minneapolis, MN",44.97510147,-93.27184296
"18TH ST E / CHICAGO AVE Minneapolis, MN",44.96522,-93.26254
"LYNDALE AVE S / 49TH ST W Minneapolis, MN",44.91413,-93.2883
"HENNEPIN AVE / LAGOON AVE Minneapolis, MN",44.94926,-93.2983
"26TH ST E / CHICAGO AVE Minneapolis, MN",44.95554,-93.2626
"LAKE ST E / SNELLING AVE Minneapolis, MN",44.94842,-93.23595
"39TH ST E / 27TH AVE S Minneapolis, MN",44.93232,-93.23338
"2745 FREMONT AVE S Minneapolis, MN",44.952334,-93.295341
"3016 COLUMBUS AVE Minneapolis, MN",44.94775,-93.264286
"3800 6TH ST N Minneapolis, MN",45.02407,-93.28611
"1805 14TH AVE S Minneapolis, MN",44.96493,-93.255103
"1010 7TH ST S Minneapolis, MN",44.971411,-93.257206
"3657 FREMONT AVE N Minneapolis, MN",45.02203,-93.29595
"14TH ST W / SPRUCE PL Minneapolis, MN",44.96879,-93.28084
"LAKE ST W / PLEASANT AVE Minneapolis, MN",44.94834,-93.28303
"HENNEPIN AVE E / 5TH AVE SE Minneapolis, MN",44.99149,-93.24353
"5300 CEDAR AVE S Minneapolis, MN",44.90358371,-93.24752705
"LAKE ST E / 31ST AVE S Minneapolis, MN",44.94839,-93.22708
"BROADWAY ST NE / MONROE ST NE Minneapolis, MN",44.99872,-93.25242
"HURON BLVD SE / ESSEX ST SE Minneapolis, MN",44.97137,-93.22289
"3924 4TH AVE S Minneapolis, MN",44.93155,-93.2705
"3900 CEDAR AVE S Minneapolis, MN",44.93215183,-93.24764833
"2100 LYNDALE AVE S Minneapolis, MN",44.961637,-93.288445
"LYNDALE AVE S / 25TH ST W Minneapolis, MN",44.95732,-93.28803
"8TH ST N / HENNEPIN AVE Minneapolis, MN",44.9772,-93.27589
"22ND AVE S / 7TH ST S Minneapolis, MN",44.96661,-93.24093
"50TH ST E / HIAWATHA AVE Minneapolis, MN",44.91295,-93.21027
"2ND ST S / 2ND AVE S Minneapolis, MN",44.98158,-93.26461
"414 HENNEPIN AVE Minneapolis, MN",44.98035,-93.27228
"4051 BRYANT AVE N Minneapolis, MN",45.02938,-93.29099
"2212 31ST AVE S Minneapolis, MN",44.96053,-93.2273
"2601 COLFAX AVE S Minneapolis, MN",44.9554,-93.291569
"3300 BLOCK RUSSELL AVE N Minneapolis, MN",45.01518,-93.31042
"6TH AVE N / KNOX AVE N Minneapolis, MN",44.98711499,-93.27553498
"1912 6TH ST NE Minneapolis, MN",45.00798,-93.25896
"300 BORDER AVE N Minneapolis, MN",44.98105833,-93.28475817
"26TH AVE N / FREMONT AVE N Minneapolis, MN",45.00595,-93.29561
"1104 PLYMOUTH AVE N Minneapolis, MN",44.99241,-93.294542
"3345 CHICAGO AVE Minneapolis, MN",44.94211,-93.26153
"HIAWATHA AVE / 35TH ST E Minneapolis, MN",44.93953,-93.23224
"1400 LAUREL AVE Minneapolis, MN",44.974448,-93.283726
"1606 22ND AVE N Minneapolis, MN",45.002778,-93.300605
"1947 STINSON PKWY Minneapolis, MN",45.008978,-93.226274
"RUSSELL AVE N / 16TH AVE N Minneapolis, MN",44.99514,-93.31078
"34TH ST W / LYNDALE AVE S Minneapolis, MN",44.94132,-93.28814
"113 GRANT ST W Minneapolis, MN",44.969715,-93.280017
"ONTARIO ST SE / FULTON ST SE Minneapolis, MN",44.97023,-93.22565
"FRANKLIN AVE E / 4TH AVE S Minneapolis, MN",44.96268,-93.27022
"LYNDALE AVE N / PLYMOUTH AVE N Minneapolis, MN",44.99193,-93.28799
"4601 46TH AVE S Minneapolis, MN",44.919692,-93.206967
"26TH ST E / PORTLAND AVE Minneapolis, MN",44.95551,-93.26768
"5937 NICOLLET AVE Minneapolis, MN",44.895182,-93.277195
"1400 2ND ST S Minneapolis, MN",44.97461833,-93.24670667
"FRANKLIN AVE E / OAKLAND AVE Minneapolis, MN",44.9627,-93.26639
"31ST AVE N / LYNDALE AVE N Minneapolis, MN",45.01197,-93.288
"2ND AVE N / 5TH ST N Minneapolis, MN",44.98125,-93.27477
"GOLDEN VALLEY RD / SHERIDAN AVE N Minneapolis, MN",44.9988,-93.31204
"2930 COLFAX AVE N Minneapolis, MN",45.010439,-93.291436
"27TH ST E / 1ST AVE S Minneapolis, MN",44.95373,-93.27658
"27TH AVE N / GIRARD AVE N Minneapolis, MN",45.00773,-93.29683
"LOWRY AVE NE / MARSHALL ST NE Minneapolis, MN",45.01318,-93.27175
"SUMMER ST NE / TAFT ST NE Minneapolis, MN",44.9969,-93.22411
"1311 THOMAS AVE N Minneapolis, MN",44.99206,-93.31371
"2500 ALDRICH AVE S Minneapolis, MN",44.95713,-93.28958
"2200 BLOCK FILLMORE ST NE Minneapolis, MN",45.010049,-93.242545
"HENNEPIN AVE / DOUGLAS AVE Minneapolis, MN",44.96641,-93.28888
"3500 CLINTON AVE Minneapolis, MN",44.939422,-93.271764
"4715 CEDAR AVE S Minneapolis, MN",44.917035,-93.246912
"3837 ALDRICH AVE S Minneapolis, MN",44.932855,-93.289167
"6017 RUSSELL AVE S Minneapolis, MN",44.893796,-93.310846
"13TH AVE S / 26TH ST E Minneapolis, MN",44.95553,-93.25625
"29TH ST E / CEDAR AVE S Minneapolis, MN",44.95005,-93.2474
"28TH ST W / LYNDALE AVE S Minneapolis, MN",44.95197,-93.28809
"2800 GRAND AVE S Minneapolis, MN",44.95145,-93.28462
"BROADWAY ST NE / HOOVER ST NE Minneapolis, MN",44.99884,-93.21775
"4600 HUMBOLDT AVE N Minneapolis, MN",45.03919633,-93.29847117
"CENTRAL AVE NE / 6TH ST NE Minneapolis, MN",44.98991,-93.25239
"307 WASHINGTON AVE N Minneapolis, MN",44.984616,-93.273148
"INTERSTATE 94 / LYNDALE AVE N TO WB I94 Minneapolis, MN",44.98973167,-93.287875
"24TH ST E / BLOOMINGTON AVE Minneapolis, MN",44.95913,-93.25236
"58TH ST E / 44TH AVE S Minneapolis, MN",44.89867,-93.2102
"38TH ST E / 42ND AVE S Minneapolis, MN",44.93428,-93.21277
"505 1ST AVE NE Minneapolis, MN",44.990408,-93.253951
"2325 ILION AVE N Minneapolis, MN",45.00324,-93.3017
"PENN AVE S / MOUNT VIEW AVE Minneapolis, MN",44.97174,-93.30838
"1650 NEW BRIGHTON BLVD Minneapolis, MN",45.005246,-93.229374
"2654 DUPONT AVE N Minneapolis, MN",45.007597,-93.292687
"1834 NEWTON AVE N Minneapolis, MN",44.998467,-93.305338
"1700 UPTON AVE N Minneapolis, MN",44.997135,-93.314254
"2500 LAKE ST E Minneapolis, MN",44.949315,-93.237018
"LAKE ST E / 5TH AVE S Minneapolis, MN",44.94836,-93.26904
"212 9TH AVE S Minneapolis, MN",44.9774,-93.25592
"CENTRAL AVE NE / SAINT ANTHONY PKWY Minneapolis, MN",45.02567,-93.24744
"3441 HARRIET AVE Minneapolis, MN",44.94070688,-93.28553308
"990 CENTRAL AVE NE Minneapolis, MN",44.99555417,-93.24764817
"LYNDALE AVE S / 29TH ST W Minneapolis, MN",44.95004,-93.28809
"BRYANT AVE N / 24TH AVE N Minneapolis, MN",45.00368,-93.29105
"28TH ST E / BLOOMINGTON AVE Minneapolis, MN",44.95196,-93.25246
"1015 4TH AVE N Minneapolis, MN",44.98150117,-93.29201067
"1121 JACKSON ST NE Minneapolis, MN",44.99932,-93.24932
"PARK AVE / 7TH ST S Minneapolis, MN",44.97282,-93.26268
"7TH ST S / MARQUETTE AVE Minneapolis, MN",44.97632,-93.27089
"PENN AVE N / LOWRY AVE N Minneapolis, MN",45.01324,-93.30824
"4125 EAST LAKE HARRIET PKWY Minneapolis, MN",44.92856338,-93.30890865
"1132 CENTRAL AVE NE Minneapolis, MN",44.99970283,-93.24767733
"31ST ST E / BLOOMINGTON AVE Minneapolis, MN",44.94655,-93.25247
"3013 GRAND AVE S Minneapolis, MN",44.94786833,-93.284085
"2615 1ST AVE S Minneapolis, MN",44.95491,-93.27624
"618 36TH ST E Minneapolis, MN",44.93797,-93.26653
"3035 6TH ST N Minneapolis, MN",45.01182,-93.28685
"CEDAR AVE S / EAST LAKE NOKOMIS PKWY Minneapolis, MN",44.90137,-93.24752
"CHICAGO AVE / 8TH ST S Minneapolis, MN",44.9713,-93.26214
"PILLSBURY AVE / FRANKLIN AVE W Minneapolis, MN",44.96269,-93.28124
"34TH AVE S / 55TH ST E Minneapolis, MN",44.90355,-93.22292
"2525 CHICAGO AVE Minneapolis, MN",44.95679,-93.261979
"33RD AVE N / PENN AVE N Minneapolis, MN",45.01503,-93.30824
"GIRARD AVE N / GOLDEN VALLEY RD Minneapolis, MN",44.99873,-93.29717
"PARK AVE / 19TH ST E Minneapolis, MN",44.96396,-93.26512
"7TH ST N / OLSON MEMORIAL HWY Minneapolis, MN",44.98442,-93.28391
"29TH AVE N / LYNDALE AVE N Minneapolis, MN",45.00951,-93.28799
"322 25TH AVE N Minneapolis, MN",45.005001,-93.284587
"13TH AVE NE / UNIVERSITY AVE NE Minneapolis, MN",45.0009,-93.26307
"2507 LYNDALE AVE S Minneapolis, MN",44.956989,-93.287613
"UNIVERSITY AVE NE / 1ST AVE NE Minneapolis, MN",44.98902,-93.25711
"HENNEPIN AVE / COLFAX AVE S Minneapolis, MN",44.96192,-93.29201
"LYNDALE AVE N / 26TH AVE N Minneapolis, MN",45.0059,-93.28798
"3211 GIRARD AVE N Minneapolis, MN",45.01357,-93.2972
"LOWRY AVE N / IRVING AVE N Minneapolis, MN",45.01319,-93.29937
"1621 UNIVERSITY AVE NE Minneapolis, MN",45.00492,-93.26231
"78 30TH AVE NE Minneapolis, MN",45.02205,-93.27196
"401 OAK GROVE ST Minneapolis, MN",44.96729,-93.2854
"5200 CAMDEN AVE N Minneapolis, MN",45.049454,-93.288582
"28TH ST W / PILLSBURY AVE Minneapolis, MN",44.95195,-93.28132
"500 36TH ST E Minneapolis, MN",44.938266,-93.26860433
"2412 NICOLLET AVE Minneapolis, MN",44.958489,-93.278302
"WASHINGTON AVE N / DOWLING AVE N Minneapolis, MN",44.98326013,-93.27084267
"5024 BRYANT AVE N Minneapolis, MN",45.04669,-93.291122
"MARQUETTE AVE / 4TH ST S Minneapolis, MN",44.97923,-93.26843
"29TH AVE N / WASHBURN AVE N Minneapolis, MN",45.00964,-93.31729
"1925 1ST AVE S Minneapolis, MN",44.962863,-93.276345
"LYNDALE AVE S / VINELAND PL TO LYNDALE AVE S Minneapolis, MN",44.96889,-93.28805
"2925 GARFIELD AVE Minneapolis, MN",44.949497,-93.286453
"310 QUEEN AVE N Minneapolis, MN",44.9802,-93.30888
"4423 NICOLLET AVE Minneapolis, MN",44.92251,-93.27753
"36TH ST E / CHICAGO AVE Minneapolis, MN",44.93776,-93.26253
"28TH ST E / HIAWATHA AVE Minneapolis, MN",44.95195,-93.24113
"26TH ST W / LYNDALE AVE S Minneapolis, MN",44.95553,-93.28805
"HIAWATHA AVE / 42ND ST E Minneapolis, MN",44.92691,-93.22361
"2ND AVE S / 11TH ST S Minneapolis, MN",44.97184,-93.27272
"10TH AVE SE / 4TH ST SE Minneapolis, MN",44.98271,-93.24134
"LAKE ST E / MINNEHAHA AVE Minneapolis, MN",44.94838,-93.23427
"1902 4TH AVE S Minneapolis, MN",44.96381,-93.27054
"LYNDALE AVE N / 22ND AVE N Minneapolis, MN",45.00147,-93.28799
"LAKE ST E / 17TH AVE S Minneapolis, MN",44.94837,-93.24995
"3121 PILLSBURY AVE Minneapolis, MN",44.94588417,-93.28095483
"5TH AVE S / 38TH ST E Minneapolis, MN",44.93416,-93.26882
"3405 COLUMBUS AVE Minneapolis, MN",44.941044,-93.263494
"14TH AVE NE / 2ND ST NE Minneapolis, MN",45.00199,-93.26613
"3725 CHICAGO AVE Minneapolis, MN",44.93517,-93.26211
"3542 GIRARD AVE N Minneapolis, MN",45.019799,-93.296491
"3847 ALDRICH AVE N Minneapolis, MN",45.02529,-93.28968
"KNOX AVE N / LOWRY AVE N Minneapolis, MN",45.01321,-93.3019
"2306 LOGAN AVE N Minneapolis, MN",45.00259,-93.30514
"4539 LYNDALE AVE N Minneapolis, MN",45.0379315,-93.28779333
"3742 HUMBOLDT AVE N Minneapolis, MN",45.023424,-93.297784
"GARFIELD AVE / 24TH ST W Minneapolis, MN",44.95911,-93.28673
"1620 PENN AVE N Minneapolis, MN",44.995973,-93.30785
"WASHINGTON AVE N / 1ST AVE N Minneapolis, MN",44.98287,-93.27027
"3122 PENN AVE N Minneapolis, MN",45.01298912,-93.30817639
"PLYMOUTH AVE N / FREMONT AVE N Minneapolis, MN",44.99199,-93.29569
"BLOOMINGTON AVE / 33RD ST E Minneapolis, MN",44.94292,-93.25244
"LAKE ST E / 12TH AVE S Minneapolis, MN",44.94836,-93.25758
"1 LAKE ST W Minneapolis, MN",44.948122,-93.278827
"3700 NICOLLET AVE Minneapolis, MN",44.935525,-93.278211
"463 GIRARD TERR Minneapolis, MN",44.98277,-93.29664
"54TH ST E / 28TH AVE S Minneapolis, MN",44.90533,-93.23231
"38TH AVE S / BOARDMAN ST Minneapolis, MN",44.90447,-93.21779
"16TH AVE NE / MARSHALL ST NE Minneapolis, MN",45.00386,-93.27141
"2116 LYNDALE AVE S Minneapolis, MN",44.961241,-93.288312
"2012 NICOLLET AVE Minneapolis, MN",44.962153,-93.278118
"1450 LAKE ST W Minneapolis, MN",44.948642,-93.299888
"1621 HILLSIDE AVE N Minneapolis, MN",45.001876,-93.302068
"2555 CENTRAL AVE NE Minneapolis, MN",45.01476,-93.24694
"14TH AVE S / FRANKLIN AVE E Minneapolis, MN",44.96274,-93.25482
"2800 JAMES AVE N Minneapolis, MN",45.00873,-93.30024
"SUMMER ST NE / JACKSON ST NE Minneapolis, MN",44.9969,-93.2499
"3RD ST N / 2ND AVE N Minneapolis, MN",44.98288,-93.27247
"1860 ELM ST SE Minneapolis, MN",44.98329267,-93.22641867
"25TH AVE N / JAMES AVE N Minneapolis, MN",45.00485,-93.30115
"1237 PENN AVE N Minneapolis, MN",44.99092,-93.30859
"3301 2ND ST N Minneapolis, MN",45.015044,-93.281227
"43RD AVE N / NEWTON AVE N Minneapolis, MN",45.03338,-93.30597
"3550 CEDAR LAKE AVE Minneapolis, MN",44.95348464,-93.32416758
"2519 FREMONT AVE N Minneapolis, MN",45.00552,-93.29605
"18TH ST E / PARK AVE Minneapolis, MN",44.96522,-93.26512
"2421 PILLSBURY AVE Minneapolis, MN",44.958294,-93.280806
"BROADWAY ST NE / JOHNSON ST NE Minneapolis, MN",44.9987,-93.23707
"1914 XERXES AVE N Minneapolis, MN",44.999394,-93.318081
"2513 CENTRAL AVE NE Minneapolis, MN",45.013864,-93.246999
"4TH ST S / CEDAR AVE S Minneapolis, MN",44.97022,-93.24727
"3404 EMERSON AVE S Minneapolis, MN",44.94092133,-93.294831
"1301 BROADWAY AVE W Minneapolis, MN",44.998975,-93.297459
"5526 OLIVER AVE S Minneapolis, MN",44.9023,-93.30773
"6TH ST S / CEDAR AVE S Minneapolis, MN",44.96774,-93.24727
"26 5TH ST N Minneapolis, MN",44.980474,-93.273249
"371 DOWLING AVE N Minneapolis, MN",45.02388975,-93.28586203
"34TH AVE N / QUEEN AVE N Minneapolis, MN",45.01685,-93.30952
"4307 FREMONT AVE N Minneapolis, MN",45.03358,-93.29612
"3034 JOHNSON ST NE Minneapolis, MN",45.02326,-93.23749
"2006 PARK AVE Minneapolis, MN",44.962356,-93.26542467
"32ND ST E / CEDAR AVE S Minneapolis, MN",44.94475,-93.24741
"LASALLE AVE / GRANT ST W Minneapolis, MN",44.96985,-93.27933
"828 SPRING ST NE Minneapolis, MN",44.99486667,-93.24986667
"LOWRY AVE N / OLIVER AVE N Minneapolis, MN",45.01323,-93.30697
"1600 CHICAGO AVE Minneapolis, MN",44.966939,-93.263112
"4912 THOMAS AVE S Minneapolis, MN",44.91375,-93.31414
"23RD AVE NE / 6TH ST NE Minneapolis, MN",45.01107,-93.25914
"LAKE ST W / HENNEPIN AVE Minneapolis, MN",44.94837,-93.2983
"501 HENNEPIN AVE Minneapolis, MN",44.98071833,-93.27441667
"329 15TH ST W Minneapolis, MN",44.967564,-93.283916
"42ND ST E / CHICAGO AVE Minneapolis, MN",44.92694,-93.2625
"HENNEPIN AVE / LYNDALE AVE S Minneapolis, MN",44.96709,-93.28801
"2519 9TH ST S Minneapolis, MN",44.96394503,-93.23572728
"912 24TH ST E Minneapolis, MN",44.959584,-93.260467
"38TH ST E / 23RD AVE S Minneapolis, MN",44.93411,-93.23889
"53RD AVE N / LOGAN AVE N Minneapolis, MN",45.05118,-93.30426
"3610 BRYANT AVE N Minneapolis, MN",45.020675,-93.290201
"1010 BROADWAY AVE W Minneapolis, MN",44.99991,-93.292753
"15TH ST E / PORTLAND AVE Minneapolis, MN",44.96806,-93.26768
"420 15TH AVE S Minneapolis, MN",44.97066,-93.25046
"2300 BLOCK STEVENS AVE Minneapolis, MN",44.95932,-93.27593
"806 36TH ST E Minneapolis, MN",44.938016,-93.262078
"1915 CLINTON AVE Minneapolis, MN",44.96351,-93.27122
"9TH ST S / NICOLLET MALL Minneapolis, MN",44.97499,-93.27385
"3201 OLIVER AVE N Minneapolis, MN",45.0134,-93.30728
"LYNDALE AVE S / 35TH ST W Minneapolis, MN",44.93951,-93.28816
"OLSON MEMORIAL HWY / LYNDALE AVE N Minneapolis, MN",44.98444,-93.28753
"15TH AVE SE / UNIVERSITY AVE SE Minneapolis, MN",44.97897,-93.23517
"3RD ST S / HENNEPIN AVE Minneapolis, MN",44.9813,-93.27017
"4700 BLOCK LAKE ST E Minneapolis, MN",44.94841401,-93.20599147
"16TH ST N / HENNEPIN AVE Minneapolis, MN",44.97268,-93.28556
"2437 LYNDALE AVE S Minneapolis, MN",44.957986,-93.287608
"2118 LYNDALE AVE N Minneapolis, MN",45.000862,-93.287567
"31ST ST E / CLINTON AVE Minneapolis, MN",44.94664,-93.27154
"18TH AVE N / NEW YORK AVE Minneapolis, MN",44.9974,-93.28536
"15TH AVE N / MORGAN AVE N Minneapolis, MN",44.99415,-93.30445
"1401 PORTLAND AVE Minneapolis, MN",44.9686915,-93.26711
"3100 EXCELSIOR BLVD Minneapolis, MN",44.946531,-93.322268
"PIERCE ST NE / BROADWAY ST NE Minneapolis, MN",44.9987,-93.241
"12TH ST N / CURRIE AVE Minneapolis, MN",44.97793,-93.2816
"58TH ST W / LYNDALE AVE S Minneapolis, MN",44.89786,-93.28827
"LOWRY AVE N / FREMONT AVE N Minneapolis, MN",45.01314,-93.29558
"FRANKLIN AVE SE / 27TH AVE SE Minneapolis, MN",44.9647,-93.22053
"740 17TH ST E Minneapolis, MN",44.966499,-93.262822
"BLAISDELL AVE / 25TH ST W Minneapolis, MN",44.9573,-93.27961
"DOWLING AVE N / LYNDALE AVE N Minneapolis, MN",45.02394,-93.28807
"3524 42ND AVE S Minneapolis, MN",44.938633,-93.213401
"3622 DUPONT AVE N Minneapolis, MN",45.021027,-93.292721
"3515 MARSHALL ST NE Minneapolis, MN",45.03127383,-93.2760305
"935 OLSON MEMORIAL HWY Minneapolis, MN",44.983708,-93.292476
"3809 STANDISH AVE Minneapolis, MN",44.933758,-93.239367
"3914 VINCENT AVE N Minneapolis, MN",45.02638,-93.31567
"24TH ST E / 14TH AVE S Minneapolis, MN",44.95912,-93.25493
"199 25TH ST W Minneapolis, MN",44.95726036,-93.27867269
"527 HUMBOLDT AVE N Minneapolis, MN",44.98379767,-93.29892733
"58TH ST E / LONGFELLOW AVE Minneapolis, MN",44.89796,-93.24633
"4TH ST N / 1ST AVE N Minneapolis, MN",44.98125,-93.27252
"26TH AVE N / 4TH ST N Minneapolis, MN",45.0059,-93.28493
"27TH ST W / GARFIELD AVE Minneapolis, MN",44.95374,-93.28678
"2700 EMERSON AVE N Minneapolis, MN",45.007941,-93.293952
"1138 GLENWOOD AVE Minneapolis, MN",44.98068,-93.29511
"4TH ST N / HENNEPIN AVE Minneapolis, MN",44.98044,-93.27137
"28TH ST E / STEVENS AVE Minneapolis, MN",44.95193,-93.27534
"11TH AVE S / 8TH ST S Minneapolis, MN",44.96956,-93.25806
"106 29TH ST W Minneapolis, MN",44.95097,-93.28013
"15TH AVE SE / 5TH ST SE Minneapolis, MN",44.98093,-93.23361
"710 15TH AVE NE Minneapolis, MN",45.002661,-93.25133
"DUPONT AVE S / 28TH ST W Minneapolis, MN",44.95195,-93.29318
"1706 23RD AVE NE Minneapolis, MN",45.011198,-93.235545
"399 25TH ST W Minneapolis, MN",44.95726177,-93.27842391
"2951 CENTRAL AVE NE Minneapolis, MN",45.021462,-93.247006
"25TH ST E / CHICAGO AVE Minneapolis, MN",44.95732,-93.26257
"7TH ST S / 5TH AVE S Minneapolis, MN",44.974,-93.26543
"GLENWOOD AVE / BRYANT AVE N Minneapolis, MN",44.97987,-93.29086
"2631 COLFAX AVE S Minneapolis, MN",44.95459,-93.29162
"3RD ST S / MARQUETTE AVE Minneapolis, MN",44.98016,-93.26765
"2950 MORGAN AVE N Minneapolis, MN",45.011153,-93.304078
"934 OLSON MEMORIAL HWY Minneapolis, MN",44.98475687,-93.2870055
"EMERSON AVE N / 27TH AVE N Minneapolis, MN",45.00772,-93.29432
"2023 SHERIDAN AVE N Minneapolis, MN",45.00025,-93.3124
"WEST LAKE NOKOMIS PKWY / CHATEAU PL Minneapolis, MN",44.90606,-93.25047
"PORTLAND AVE / 7TH ST S Minneapolis, MN",44.97344,-93.26412
"4830 FREMONT AVE N Minneapolis, MN",45.043206,-93.296254
"PORTLAND AVE / 19TH ST E Minneapolis, MN",44.9639,-93.26767
"DOWLING AVE N / 4TH ST N Minneapolis, MN",45.0241,-93.307465
"45 4TH ST S Minneapolis, MN",44.97982039,-93.26998947
"MARSHALL ST NE / 9TH AVE NE Minneapolis, MN",44.99616,-93.26731
"2827 IRVING AVE N Minneapolis, MN",45.00942,-93.29972
"2062 SAINT ANTHONY PKWY Minneapolis, MN",45.0196,-93.23125
"1808 FRANKLIN AVE E Minneapolis, MN",44.96269049,-93.2493036
"3238 DUPONT AVE N Minneapolis, MN",45.01441,-93.292703
"26TH ST E / PARK AVE Minneapolis, MN",44.95552,-93.26515
"31ST ST W / BRYANT AVE S Minneapolis, MN",44.94659,-93.29066
"325 LAKE ST E Minneapolis, MN",44.948132,-93.271377
"610 32ND ST W Minneapolis, MN",44.944963,-93.287366
"CENTRAL AVE NE / 18TH AVE NE Minneapolis, MN",45.00594,-93.24737
"31ST ST W / JAMES AVE S Minneapolis, MN",44.94664,-93.30337
"24TH ST E / 3RD AVE S Minneapolis, MN",44.95919,-93.27273
"621 BROADWAY AVE W Minneapolis, MN",44.998267,-93.28771
"LOWRY AVE N / 2ND ST N Minneapolis, MN",45.01311,-93.28067
"BEDFORD ST SE / ORLIN AVE SE Minneapolis, MN",44.96641,-93.20897
"8TH AVE NE / UNIVERSITY AVE NE Minneapolis, MN",44.99667,-93.26234
"LAKE ST W / WEST LAKE CALHOUN PKWY Minneapolis, MN",44.94859,-93.35005
"FRANKLIN AVE W / BLAISDELL AVE Minneapolis, MN",44.96269,-93.27947
"15TH ST W / WILLOW ST Minneapolis, MN",44.96771,-93.28185
"4036 44TH AVE S Minneapolis, MN",44.92952,-93.21055
"3832 20TH AVE S Minneapolis, MN",44.93297,-93.24389
"965 CENTRAL AVE NE Minneapolis, MN",44.994761,-93.248933
"12TH ST N / HENNEPIN AVE Minneapolis, MN",44.97471,-93.28039
"1810 OLIVER AVE N Minneapolis, MN",44.997787,-93.306597
"5104 HUMBOLDT AVE N Minneapolis, MN",45.047784,-93.298891
"22ND AVE NE / CALIFORNIA ST NE Minneapolis, MN",45.01007,-93.2689
"29TH AVE N / BRYANT AVE N Minneapolis, MN",45.00951,-93.29052
"PORTLAND AVE / 4TH ST S Minneapolis, MN",44.97632,-93.2616
"1719 MARSHALL ST NE Minneapolis, MN",45.00556333,-93.27124
"LAKE ST W / COLFAX AVE S Minneapolis, MN",44.94838,-93.29193
"4215 PENN AVE N Minneapolis, MN",45.03181,-93.30886
"2006 PORTLAND AVE Minneapolis, MN",44.96239383,-93.26802483
"33RD ST E / PORTLAND AVE Minneapolis, MN",44.94319,-93.26769
"CEDAR AVE S / LAKE ST E Minneapolis, MN",44.94838,-93.24743
"2900 11TH AVE S Minneapolis, MN",44.94933,-93.25947
"2220 RIVERSIDE AVE Minneapolis, MN",44.967991,-93.240206
"211 26TH AVE N Minneapolis, MN",45.005419,-93.280528
"31ST ST W / HENNEPIN AVE Minneapolis, MN",44.9466,-93.29832
"24TH ST E / 1ST AVE S Minneapolis, MN",44.95919,-93.27654
"MORGAN AVE N / OLSON MEMORIAL HWY Minneapolis, MN",44.98395,-93.30448
"36TH AVE N / LYNDALE AVE N Minneapolis, MN",45.02031,-93.28803
"1900 14TH AVE S Minneapolis, MN",44.96357,-93.2561
"WB I94 TO DOWLING AVE N / DOWLING AVE N Minneapolis, MN",45.02394,-93.28466
"600 MARQUETTE AVE Minneapolis, MN",44.977129,-93.270509
"4TH ST SE / 14TH AVE SE Minneapolis, MN",44.98049,-93.23579
"26TH ST W / NICOLLET AVE Minneapolis, MN",44.95552,-93.27786
"2106 2ND AVE S Minneapolis, MN",44.961487,-93.274387
"5728 NICOLLET AVE Minneapolis, MN",44.898573,-93.278472
"740 PORTLAND AVE Minneapolis, MN",44.972926,-93.265053
"FRANCE AVE S / 39TH ST W Minneapolis, MN",44.93236,-93.32904
"4667 46TH AVE S Minneapolis, MN",44.91971,-93.2075865
"LAKE ST E / HIAWATHA AVE Minneapolis, MN",44.94831,-93.23805
"1ST ST N / 8TH AVE N Minneapolis, MN",44.98977,-93.27633
"24TH ST E / PARK AVE Minneapolis, MN",44.95911,-93.26512
"911 MORGAN AVE N Minneapolis, MN",44.987258,-93.304847
"52ND ST W / NICOLLET AVE Minneapolis, MN",44.90878,-93.27804
"21ST ST E / 14TH AVE S Minneapolis, MN",44.96181,-93.25483
"2916 HENNEPIN AVE Minneapolis, MN",44.948717,-93.298669
"LAKE ST E / 20TH AVE S Minneapolis, MN",44.94838,-93.24362
"2821 HENNEPIN AVE E Minneapolis, MN",44.991914,-93.212946
"2210 HENNEPIN AVE Minneapolis, MN",44.960534,-93.293536
"STEVENS AVE / 24TH ST E Minneapolis, MN",44.95919,-93.27529
"421 BROADWAY AVE W Minneapolis, MN",44.99876,-93.284642
"4124 43RD ST E Minneapolis, MN",44.92534,-93.21313
"21ST AVE N / EMERSON AVE N Minneapolis, MN",45.00024,-93.29409
"2418 PARK AVE Minneapolis, MN",44.95847,-93.26578
"3411 LYNDALE AVE N Minneapolis, MN",45.01706,-93.28838
"37TH AVE NE / JOHNSON ST NE Minneapolis, MN",45.03562,-93.23713
"500 BLOCK HUMBOLDT AVE N Minneapolis, MN",44.98276983,-93.29778317
"LYNDALE AVE S / 50TH ST W Minneapolis, MN",44.91231,-93.28826
"LAKE ST W / MARKET PLZA Minneapolis, MN",44.94835,-93.32062
"1311 FRANKLIN AVE E Minneapolis, MN",44.962417,-93.255281
"LYNDALE AVE S / 33RD ST W Minneapolis, MN",44.94291,-93.28812
"34TH ST E / 2ND AVE S Minneapolis, MN",44.94135,-93.27405
"60TH ST E / CHICAGO AVE Minneapolis, MN",44.89431,-93.26285
"11TH ST N / HAWTHORNE AVE Minneapolis, MN",44.97627,-93.27985
"3028 HUMBOLDT AVE S Minneapolis, MN",44.947312,-93.3012
"COLFAX AVE S / 22ND ST W Minneapolis, MN",44.9609,-93.29181
"2131 LYNDALE AVE N Minneapolis, MN",45.00132,-93.28841
"CEDAR AVE S / 50TH ST E Minneapolis, MN",44.91245,-93.24733
"134 45TH ST W Minneapolis, MN",44.921608,-93.281084
"2936 LYNDALE AVE S Minneapolis, MN",44.948826,-93.288481
"LAKE ST E / CLINTON AVE Minneapolis, MN",44.94835,-93.27156
"815 11TH AVE SE Minneapolis, MN",44.98674,-93.2366
"2700 GARFIELD AVE Minneapolis, MN",44.953605,-93.287132
"WASHINGTON AVE N / 7TH AVE N Minneapolis, MN",44.98741,-93.27658
"1818 BRYANT AVE N Minneapolis, MN",44.998176,-93.290605
"2001 BLAISDELL AVE Minneapolis, MN",44.962323,-93.279132
"LAKE ST E / 36TH AVE S Minneapolis, MN",44.94837,-93.22037
"2823 FRANKLIN AVE E Minneapolis, MN",44.962407,-93.230249
"BLOOMINGTON AVE / 29TH ST E Minneapolis, MN",44.95007,-93.25247
"3336 LYNDALE AVE S Minneapolis, MN",44.94182,-93.28858
"2710 PACIFIC ST Minneapolis, MN",45.007745,-93.276194
"4308 29TH AVE S Minneapolis, MN",44.92471,-93.2312
"LAKE ST E / 35TH AVE S Minneapolis, MN",44.94837,-93.22168
"14TH AVE S / 26TH ST E Minneapolis, MN",44.95554,-93.25497
"38TH ST E / BLOOMINGTON AVE Minneapolis, MN",44.93413,-93.25238
"LAKE ST E / 34TH AVE S Minneapolis, MN",44.94837,-93.22293
"306 10TH AVE SE Minneapolis, MN",44.98211883,-93.24175533
"MORGAN AVE N / 35TH AVE N Minneapolis, MN",45.01863,-93.30446
"PENN AVE N / 26TH AVE N Minneapolis, MN",45.00599,-93.30822
"MINNEHAHA AVE / 26TH AVE S Minneapolis, MN",44.952,-93.2347
"4TH AVE S / 15TH ST E Minneapolis, MN",44.96806,-93.27023
"1621 HENNEPIN AVE E Minneapolis, MN",44.991662,-93.228961
"1813 RIVERSIDE AVE Minneapolis, MN",44.969682,-93.246507
"LOWRY AVE N / NEWTON AVE N Minneapolis, MN",45.01323,-93.3057
"1822 LASALLE AVE Minneapolis, MN",44.96462667,-93.27966283
"2219 PENN AVE N Minneapolis, MN",45.002133,-93.308584
"1200 HENNEPIN AVE Minneapolis, MN",44.974522,-93.28100433
"FRANKLIN AVE E / 5TH AVE S Minneapolis, MN",44.96269,-93.26893
"46TH ST E / MINNEHAHA AVE Minneapolis, MN",44.91964,-93.21483
"CEDAR AVE S / WEST LAKE NOKOMIS PKWY Minneapolis, MN",44.90887,-93.24736
"3100 WASHBURN AVE N Minneapolis, MN",45.012279,-93.316789
"MINNEHAHA AVE / FRANKLIN AVE E Minneapolis, MN",44.96274,-93.24441
"1604 BROADWAY AVE W Minneapolis, MN",44.9997,-93.301696
"2551 CENTRAL AVE NE Minneapolis, MN",45.014761,-93.246853
"800 BROADWAY AVE W Minneapolis, MN",44.999465,-93.28995
"5038 6TH ST N Minneapolis, MN",45.0471,-93.28728
"5TH AVE SE / UNIVERSITY AVE SE Minneapolis, MN",44.98449,-93.24906
"639 18TH ST E Minneapolis, MN",44.96502,-93.26569
"2508 PORTLAND AVE Minneapolis, MN",44.9568,-93.26811
"42ND ST E / NICOLLET AVE Minneapolis, MN",44.92686,-93.27793
"47TH AVE N / CAMDEN AVE N Minneapolis, MN",45.0403,-93.2889
"4107 GIRARD AVE N Minneapolis, MN",45.02986,-93.29735
"12TH AVE SE / 6TH ST SE Minneapolis, MN",44.98356,-93.23698
"3849 MINNEHAHA AVE Minneapolis, MN",44.932974,-93.222551
"27TH ST E / CEDAR AVE S Minneapolis, MN",44.95374,-93.24737
"FRANKLIN AVE E / BLOOMINGTON AVE Minneapolis, MN",44.96276,-93.25229
"HENNEPIN AVE / 5TH ST N Minneapolis, MN",44.97959,-93.27253
"PLYMOUTH AVE N / EMERSON AVE N Minneapolis, MN",44.99199,-93.29411
"2723 FREMONT AVE N Minneapolis, MN",45.00847,-93.29592
"328 BROADWAY AVE W Minneapolis, MN",44.999337,-93.284652
"9TH ST S / 3RD AVE S Minneapolis, MN",44.97322,-93.26978
"5100 HUMBOLDT AVE N Minneapolis, MN",45.047667,-93.298912
"NICOLLET AVE / 28TH ST E Minneapolis, MN",44.95195,-93.27794
"13TH AVE SE / 5TH ST SE Minneapolis, MN",44.98202,-93.2364
"3601 ELLIOT AVE Minneapolis, MN",44.9376,-93.26092
"3811 GIRARD AVE N Minneapolis, MN",45.02435,-93.29721
"100 46TH ST W Minneapolis, MN",44.919856,-93.279682
"2801 3RD ST N Minneapolis, MN",45.00859,-93.2838
"4601 LYNDALE AVE N Minneapolis, MN",45.038729,-93.28768
"16TH AVE S / LAKE ST E Minneapolis, MN",44.94836,-93.25124
"713 LAKE ST E Minneapolis, MN",44.948134,-93.264292
"GIRARD AVE S / 28TH ST W Minneapolis, MN",44.95193,-93.29698
"46TH ST E / 3RD AVE S Minneapolis, MN",44.9197,-93.2728
"1700 LAKE ST E Minneapolis, MN",44.948597,-93.249162
"GIRARD AVE N / 49TH AVE N Minneapolis, MN",45.04393,-93.29793
"2324 PLEASANT AVE Minneapolis, MN",44.95959,-93.28336
"409 MARQUETTE AVE Minneapolis, MN",44.978784,-93.268278
"2119 PILLSBURY AVE Minneapolis, MN",44.961179,-93.280786
"18TH ST E / 11TH AVE S Minneapolis, MN",44.96516,-93.25818
"620 34TH ST W Minneapolis, MN",44.941345,-93.28742333
"321 LAKE ST W Minneapolis, MN",44.9481,-93.28393
"3653 BRYANT AVE N Minneapolis, MN",45.02188,-93.29092
"821 MARQUETTE AVE Minneapolis, MN",44.974437,-93.271925
"2210 OLIVER AVE N Minneapolis, MN",45.001717,-93.306601
"1900 LAKE ST W Minneapolis, MN",44.950463,-93.30833
"24TH ST E / 10TH AVE S Minneapolis, MN",44.95912,-93.25966
"XERXES AVE N / 34TH AVE N Minneapolis, MN",45.01686,-93.31839
"43RD ST E / 14TH AVE S Minneapolis, MN",44.92514,-93.25493
"508 15TH ST E Minneapolis, MN",44.96831,-93.268502
"1430 LAKE ST W Minneapolis, MN",44.948603,-93.299124
"58TH ST W / BLAISDELL AVE Minneapolis, MN",44.89786,-93.27936
"5709 34TH AVE S Minneapolis, MN",44.899659,-93.222583
"BROADWAY ST NE / WASHINGTON ST NE Minneapolis, MN",44.99871,-93.25754
"4942 LYNDALE AVE S Minneapolis, MN",44.912734,-93.288697
"17TH AVE SE / UNIVERSITY AVE SE Minneapolis, MN",44.97786,-93.23242
"52ND AVE N / SHERIDAN AVE N Minneapolis, MN",45.04942,-93.31314
"DUNWOODY BLVD / HENNEPIN AVE Minneapolis, MN",44.97207,-93.28651
"OLSON MEMORIAL HWY / 6TH AVE N Minneapolis, MN",44.984215,-93.28355
"25TH AVE S / BUTLER PL Minneapolis, MN",44.96464,-93.23616
"27TH AVE N / MORGAN AVE N Minneapolis, MN",45.00777,-93.30442
"851 23RD AVE SE Minneapolis, MN",44.98515,-93.22065
"42ND AVE N / FREMONT AVE N Minneapolis, MN",45.03153,-93.29579
"700 LOWRY AVE NE Minneapolis, MN",45.012904,-93.252112
"19 15TH ST N Minneapolis, MN",44.97436167,-93.28442667
"WASHINGTON AVE S / 4TH AVE S Minneapolis, MN",44.97935,-93.26273
"28TH AVE N / 2ND ST N Minneapolis, MN",45.00837,-93.28027
"1770 BRYANT AVE S Minneapolis, MN",44.96601,-93.290898
"4224 COLFAX AVE S Minneapolis, MN",44.92595,-93.29246
"45TH ST E / PARK AVE Minneapolis, MN",44.92152,-93.26512
"3334 GIRARD AVE N Minneapolis, MN",45.016108,-93.296488
"2900 43RD ST W Minneapolis, MN",44.925016,-93.316505
"FREMONT AVE N / BROADWAY AVE W Minneapolis, MN",44.99917,-93.29566
"26TH AVE N / EMERSON AVE N Minneapolis, MN",45.00593,-93.29417
"CEDAR AVE S / 35TH ST E Minneapolis, MN",44.93954,-93.24738
"810 27TH AVE N Minneapolis, MN",45.007917,-93.289754
"30TH AVE N / EMERSON AVE N Minneapolis, MN",45.01132,-93.29435
"WILLOW AVE N / LOGAN AVE N Minneapolis, MN",45.00307,-93.30514
"4005 3RD AVE S Minneapolis, MN",44.93024,-93.272354
"1117 31ST ST E Minneapolis, MN",44.946356,-93.257861
"1827 RIVERSIDE AVE Minneapolis, MN",44.969397,-93.245972
"3200 BLOCK HENNEPIN AVE Minneapolis, MN",44.94454,-93.29855
"4221 SNELLING AVE Minneapolis, MN",44.92619,-93.21954
"12TH AVE N / KNOX AVE N Minneapolis, MN",44.98967,-93.30196
"3706 GRAND AVE S Minneapolis, MN",44.935536,-93.284727
"GIRARD AVE N / 26TH AVE N Minneapolis, MN",45.00595,-93.29682
"164 19TH ST E Minneapolis, MN",44.96396497,-93.27740343
"3712 PARK AVE Minneapolis, MN",44.935392,-93.265453
"925 HENNEPIN AVE E Minneapolis, MN",44.99174,-93.24059
"3RD AVE S / 34TH ST E Minneapolis, MN",44.94136,-93.27277
"CEDAR AVE S / FRANKLIN AVE E Minneapolis, MN",44.96241,-93.24845
"NICOLLET AVE / 40TH ST W Minneapolis, MN",44.9305,-93.27795
"8TH AVE SE / 2ND ST SE Minneapolis, MN",44.98183,-93.24567
"920 24TH AVE NE Minneapolis, MN",45.0118655,-93.247848
"414 6TH AVE N Minneapolis, MN",44.984908,-93.279224
"39TH ST E / 4TH AVE S Minneapolis, MN",44.93235,-93.27014
"LOWRY AVE NE / GRAND ST NE Minneapolis, MN",45.01318,-93.27011
"320 4TH ST SE Minneapolis, MN",44.986,-93.25055
"515 15TH AVE S Minneapolis, MN",44.969511,-93.25011
"38TH ST E / ELLIOT AVE Minneapolis, MN",44.93417,-93.26122
"24TH ST W / PLEASANT AVE Minneapolis, MN",44.9591,-93.28294
"3644 CEDAR AVE S Minneapolis, MN",44.93641,-93.24774
"3845 GRAND AVE S Minneapolis, MN",44.932766,-93.284017
"1120 BROADWAY AVE W Minneapolis, MN",44.999351,-93.295134
"HENNEPIN AVE / 15TH ST W Minneapolis, MN",44.96893,-93.28752
"3820 EMERSON AVE N Minneapolis, MN",45.024558,-93.29403
"26TH ST E / 10TH AVE S Minneapolis, MN",44.95553,-93.26006
"LONGFELLOW AVE / 38TH ST E Minneapolis, MN",44.93411,-93.24606
"3519 14TH AVE S Minneapolis, MN",44.93883,-93.254607
"3740 GARFIELD AVE Minneapolis, MN",44.93466,-93.28729
"PARK AVE / PORTLAND AVE Minneapolis, MN",44.89172,-93.26783
"6TH ST NE / BROADWAY ST NE Minneapolis, MN",44.99871,-93.25887
"22ND ST W / HENNEPIN AVE Minneapolis, MN",44.96093,-93.29277
"4TH AVE S / 12TH ST TO SB HWY65 S Minneapolis, MN",44.887485,-93.04876
"2223 HARRIET AVE Minneapolis, MN",44.96016,-93.28513
"2920 ALDRICH AVE S Minneapolis, MN",44.94964,-93.289725
"1018 20TH AVE NE Minneapolis, MN",45.0087,-93.24455
"WASHINGTON AVE S / 10TH AVE S Minneapolis, MN",44.97592,-93.25457
"LAKE ST E / COLUMBUS AVE Minneapolis, MN",44.94836,-93.26391
"1800 CHICAGO AVE Minneapolis, MN",44.964792,-93.26314183
"UNIVERSITY AVE NE / 19TH AVE NE Minneapolis, MN",45.00747,-93.26311
"13TH AVE S / 27TH ST E Minneapolis, MN",44.95372,-93.25628
"5TH AVE N / 2ND ST N Minneapolis, MN",44.98694,-93.27355
"1821 RIVERSIDE AVE Minneapolis, MN",44.969541,-93.246151
"UNIVERSITY AVE SE / HURON BLVD SE Minneapolis, MN",44.97427,-93.22362
"3025 GARFIELD AVE Minneapolis, MN",44.94743,-93.28647
"500 CEDAR AVE S Minneapolis, MN",44.968726,-93.24745
"2910 LAKE ST E Minneapolis, MN",44.948638,-93.229447
"517 MARQUETTE AVE Minneapolis, MN",44.977617,-93.269234
"212 7TH ST S Minneapolis, MN",44.975748,-93.268826
"1612 2ND ST NE Minneapolis, MN",45.004786,-93.266675
"18TH AVE NE / JOHNSON ST NE Minneapolis, MN",45.00597,-93.23717
"EXCELSIOR BLVD / ABBOTT AVE S Minneapolis, MN",44.94587,-93.32249
"802 LOWRY AVE NE Minneapolis, MN",45.01311813,-93.25048695
"254 2ND AVE N Minneapolis, MN",44.983373,-93.272283
"2452 GARFIELD AVE Minneapolis, MN",44.95749,-93.28709
"215 LAKE ST E Minneapolis, MN",44.94799,-93.273094
"1507 LAKE ST E Minneapolis, MN",44.94811,-93.25343
"10TH ST S / LASALLE AVE Minneapolis, MN",44.97459,-93.2761
"801 HENNEPIN AVE Minneapolis, MN",44.976862,-93.275703
"CEDAR AVE S / 7TH ST S Minneapolis, MN",44.96663,-93.24726
"HENNEPIN AVE / 7TH ST S Minneapolis, MN",44.97798,-93.27481
"18TH ST E / 2ND AVE S Minneapolis, MN",44.96521,-93.27405
"27TH AVE N / LYNDALE AVE N Minneapolis, MN",45.00768,-93.28798
"28TH ST W / PLEASANT AVE Minneapolis, MN",44.95195,-93.28298
"1925 PLYMOUTH AVE N Minneapolis, MN",44.991047,-93.305114
"18TH AVE N / LYNDALE AVE N Minneapolis, MN",44.99739,-93.288
"12TH AVE S / 26TH ST E Minneapolis, MN",44.95553,-93.25754
"729 MARSHALL ST NE Minneapolis, MN",44.995117,-93.266074
"3025 16TH AVE S Minneapolis, MN",44.94748,-93.250873
"35TH ST E / 25TH AVE S Minneapolis, MN",44.93954,-93.23593
"8TH ST S / 9TH AVE S Minneapolis, MN",44.97073,-93.26078
"3142 LYNDALE AVE S Minneapolis, MN",44.94509,-93.28855
"GARFIELD AVE / 22ND ST W Minneapolis, MN",44.96089,-93.28674
"2500 CEDAR AVE S Minneapolis, MN",44.95687,-93.24799
"5114 LYNDALE AVE N Minneapolis, MN",45.04806,-93.28306
"3340 SNELLING AVE Minneapolis, MN",44.9417785,-93.23144967
"51ST ST E / CEDAR AVE S Minneapolis, MN",44.91066,-93.24734
"3133 FREMONT AVE S Minneapolis, MN",44.945409,-93.295405
"27TH ST W / HARRIET AVE Minneapolis, MN",44.95375,-93.2855
"KENWOOD PKWY / WEST LAKE OF THE ISLES PKWY Minneapolis, MN",44.95971,-93.30924
"3807 FREMONT AVE N Minneapolis, MN",45.024217,-93.296135
"2600 PORTLAND AVE Minneapolis, MN",44.955313,-93.268094
"918 LAKE ST W Minneapolis, MN",44.948641,-93.291548
"1701 PIERCE ST NE Minneapolis, MN",45.005094,-93.240637
"3RD AVE S / 1ST ST S Minneapolis, MN",44.98197,-93.2624
"3RD AVE S / LAKE ST E Minneapolis, MN",44.94836,-93.27286
"19TH ST E / NICOLLET AVE Minneapolis, MN",44.96392,-93.2778
"3033 EXCELSIOR BLVD Minneapolis, MN",44.947657,-93.318113
"1226 LINDEN AVE Minneapolis, MN",44.976127,-93.282605
"900 CHICAGO AVE Minneapolis, MN",44.96967,-93.26301
"3016 34TH AVE S Minneapolis, MN",44.94774,-93.22333
"HENNEPIN AVE / 25HALF ST W Minneapolis, MN",44.9840707,-93.26604703
"34TH ST E / NICOLLET AVE Minneapolis, MN",44.94133,-93.27792
"5957 PENN AVE S Minneapolis, MN",44.894771,-93.30819
"36TH AVE N / THOMAS AVE N Minneapolis, MN",45.02049,-93.31335
"1041 ALDRICH AVE N Minneapolis, MN",44.989025,-93.29123333
"31ST ST E / 11TH AVE S Minneapolis, MN",44.94653,-93.25883
"2911 LYNDALE AVE N Minneapolis, MN",45.00987,-93.28836
"31ST ST E / STEVENS AVE Minneapolis, MN",44.94666,-93.27536
"47TH AVE N / ALDRICH AVE N Minneapolis, MN",45.04028,-93.29017
"2019 16TH AVE S Minneapolis, MN",44.96154,-93.24985
"1006 22ND AVE NE Minneapolis, MN",45.009636,-93.245211
"1121 5TH ST SE Minneapolis, MN",44.98308,-93.23801
"333 OAK GROVE ST Minneapolis, MN",44.96693,-93.284115
"28TH ST E / PORTLAND AVE Minneapolis, MN",44.95194,-93.26771
"OAK LAKE AVE N / OLSON MEMORIAL HWY Minneapolis, MN",44.98472,-93.28553
"407 15TH ST W Minneapolis, MN",44.96803574,-93.28468035
"407 15TH AVE SE Minneapolis, MN",44.980277,-93.234579
"4900 PENN AVE N Minneapolis, MN",45.04408,-93.308877
"SPRUCE PL / YALE PL Minneapolis, MN",44.97182,-93.28145
"7TH AVE N / VAN WHITE MEMORIAL BLVD Minneapolis, MN",44.98515,-93.29397
"10TH AVE SE / HENNEPIN AVE E Minneapolis, MN",44.99144,-93.23719
"725 44TH AVE N Minneapolis, MN",45.034486,-93.288649
"3418 6TH ST N Minneapolis, MN",45.01729,-93.28621
"2226 4TH ST N Minneapolis, MN",45.002317,-93.284644
"2810 PLEASANT AVE Minneapolis, MN",44.95148,-93.283383
"916 5TH ST SE Minneapolis, MN",44.983652,-93.241474
"5TH ST SE / 9TH AVE SE Minneapolis, MN",44.98454,-93.24256
"614 25TH ST E Minneapolis, MN",44.957479,-93.266748
"WASHINGTON AVE N / 21ST AVE N Minneapolis, MN",45.00027,-93.28177
"2530 12TH AVE S Minneapolis, MN",44.95618,-93.25783
"2ND AVE S / 6TH ST S Minneapolis, MN",44.9767,-93.26872
"401 UNIVERSITY AVE SE Minneapolis, MN",44.985227,-93.250269
"611 VAN WHITE MEMORIAL BLVD Minneapolis, MN",44.984787,-93.294539
"2616 16TH AVE S Minneapolis, MN",44.95489603,-93.25124708
"2025 LYNDALE AVE N Minneapolis, MN",45.00006133,-93.28788617
"49TH ST W / VINCENT AVE S Minneapolis, MN",44.91423,-93.31632
"22ND ST W / GIRARD AVE S Minneapolis, MN",44.9609,-93.29691
"309 7TH AVE SE Minneapolis, MN",44.98368,-93.24631
"2846 COLUMBUS AVE Minneapolis, MN",44.95082,-93.26425
"53RD ST W / LYNDALE AVE S Minneapolis, MN",44.90653,-93.28823
"2139 44TH AVE N Minneapolis, MN",45.03532,-93.30799333
"CHICAGO AVE / 7TH ST S Minneapolis, MN",44.97227,-93.26134
"7TH ST N / LYNDALE AVE N Minneapolis, MN",44.98819,-93.28941
"26TH ST E / 3RD AVE S Minneapolis, MN",44.95552,-93.27276
"1919 QUEEN AVE N Minneapolis, MN",44.99935,-93.30984
"43RD ST E / MINNEHAHA AVE Minneapolis, MN",44.92515,-93.2177
"5828 COLUMBUS AVE Minneapolis, MN",44.896968,-93.264457
"1404 CENTRAL AVE NE Minneapolis, MN",45.0026,-93.24771
"1218 COMO AVE SE Minneapolis, MN",44.987571,-93.233688
"2746 PLEASANT AVE Minneapolis, MN",44.952136,-93.283389
"WILLIAMS AVE SE / DELAWARE ST SE Minneapolis, MN",44.96916,-93.21763
"29TH AVE N / GIRARD AVE N Minneapolis, MN",45.00956,-93.29684
"34TH AVE N / EMERSON AVE N Minneapolis, MN",45.01673,-93.29431
"SOUTH WAYZATA BLVD / PENN AVE S Minneapolis, MN",44.96928,-93.30994
"PORTLAND AVE / 31ST ST E Minneapolis, MN",44.94666,-93.26774
"OAK ST SE / ESSEX ST SE Minneapolis, MN",44.97138,-93.22712
"HWY 94 AT LOWRY TUNNEL Minneapolis, MN",44.96915,-93.287835
"1301 21ST AVE N Minneapolis, MN",45.00009,-93.29736833
"3RD AVE S / 4TH ST S Minneapolis, MN",44.97803,-93.26571
"7TH ST S / 2ND AVE S Minneapolis, MN",44.97574,-93.26953
"3111 EMERSON AVE N Minneapolis, MN",45.012456,-93.29468
"24TH ST W / FREMONT AVE S Minneapolis, MN",44.95909,-93.29563
"LASALLE AVE / 14TH ST W Minneapolis, MN",44.96877,-93.27931
"35TH ST E / OAKLAND AVE Minneapolis, MN",44.93958,-93.26636
"30 7TH ST S Minneapolis, MN",44.977984,-93.273259
"2934 OAKLAND AVE Minneapolis, MN",44.94908,-93.26682
"2616 HARRIET AVE Minneapolis, MN",44.954975,-93.28573817
"6TH AVE N / WASHINGTON AVE N Minneapolis, MN",44.98689,-93.27585
"35 7TH ST S Minneapolis, MN",44.977109,-93.273592
"10TH ST S / MARQUETTE AVE Minneapolis, MN",44.97341,-93.2733
"LYNDALE AVE S / 31ST ST W Minneapolis, MN",44.9466,-93.28811
"1800 LASALLE AVE Minneapolis, MN",44.965215,-93.279646
"19TH AVE S / MINNEHAHA AVE Minneapolis, MN",44.96402,-93.2457
"3RD AVE S / 22ND ST E Minneapolis, MN",44.96088,-93.27273
"31ST ST E / 21ST AVE S Minneapolis, MN",44.94654,-93.24232
"5TH AVE S / 1ST ST S Minneapolis, MN",44.9808,-93.25988
"27TH ST E / 16TH AVE S Minneapolis, MN",44.95375,-93.25119
"62ND ST E / NICOLLET AVE Minneapolis, MN",44.89087,-93.27812
"4429 PORTLAND AVE Minneapolis, MN",44.92235,-93.26721
"22ND AVE N / 4TH ST N Minneapolis, MN",45.00148,-93.28495
"1030 2ND AVE S Minneapolis, MN",44.97257,-93.2723
"1000 WASHINGTON AVE SE Minneapolis, MN",44.973478,-93.223268
"3856 27TH AVE S Minneapolis, MN",44.932449,-93.233747
"1910 WASHINGTON AVE N Minneapolis, MN",44.998579,-93.281364
"318 2ND AVE N Minneapolis, MN",44.98286,-93.27369
"2627 LONGFELLOW AVE Minneapolis, MN",44.954656,-93.24573
"2218 LAKE ST E Minneapolis, MN",44.948791,-93.240132
"2126 44TH AVE N Minneapolis, MN",45.03568567,-93.30818817
"34TH ST E / MINNEHAHA AVE Minneapolis, MN",44.94135,-93.22915
"3010 OLIVER AVE N Minneapolis, MN",45.011803,-93.30661
"WASHINGTON AVE N / HENNEPIN AVE Minneapolis, MN",44.9822,-93.26892
"835 HENNEPIN AVE E Minneapolis, MN",44.991986,-93.246017
"27TH ST W / BLAISDELL AVE Minneapolis, MN",44.95376,-93.27965
"2124 44TH AVE N Minneapolis, MN",45.035651,-93.308014
"3675 MINNEHAHA AVE Minneapolis, MN",44.935887,-93.224808
"400 CEDAR AVE S Minneapolis, MN",44.970129,-93.247522
"5400 EDGEWATER BLVD Minneapolis, MN",44.904961,-93.254679
"GIRARD AVE N / LOWRY AVE N Minneapolis, MN",45.01316,-93.29685
"21ST ST E / 13TH AVE S Minneapolis, MN",44.96183,-93.25615
"LAKE ST E / 19TH AVE S Minneapolis, MN",44.94838,-93.24484
"3931 THOMAS AVE N Minneapolis, MN",45.026817,-93.313863
"333 7TH ST S Minneapolis, MN",44.974226,-93.267576
"4141 PARK AVE Minneapolis, MN",44.927451,-93.264612
"2850 26TH AVE S Minneapolis, MN",44.951495,-93.235705
"4319 CEDAR AVE S Minneapolis, MN",44.924454,-93.24693
"1615 22ND AVE N Minneapolis, MN",45.002529,-93.301269
"353 5TH ST N Minneapolis, MN",44.98202,-93.27768
"615 18TH ST E Minneapolis, MN",44.96488833,-93.26666483
"5935 2ND AVE S Minneapolis, MN",44.8954,-93.2739
"LYNDALE AVE N / 11TH AVE N Minneapolis, MN",44.98901,-93.28779
"42ND ST E / CEDAR AVE S Minneapolis, MN",44.92693,-93.24734
"3300 4TH AVE S Minneapolis, MN",44.943038,-93.270469
"HAWTHORNE AVE / 9TH ST N Minneapolis, MN",44.97716,-93.27775
"10 LAKE ST E Minneapolis, MN",44.94840497,-93.27769578
"14TH AVE S / 32ND ST E Minneapolis, MN",44.94476,-93.25503
"8TH ST SE / 10TH AVE SE Minneapolis, MN",44.98661,-93.23822
"4TH ST S / 2ND AVE S Minneapolis, MN",44.97863,-93.26706
"30TH AVE N / PENN AVE N Minneapolis, MN",45.01143,-93.30823
"416 PIERCE ST NE Minneapolis, MN",44.993871,-93.241351
"2710 PENN AVE N Minneapolis, MN",45.00819,-93.30784
"1831 2ND AVE S Minneapolis, MN",44.96431,-93.27365
"404 LAKE ST W Minneapolis, MN",44.948623,-93.284655
"1318 23RD ST E Minneapolis, MN",44.960234,-93.255302
"22ND ST E / CHICAGO AVE Minneapolis, MN",44.9609,-93.26257
"216 29TH ST W Minneapolis, MN",44.95097,-93.28231
"25TH ST E / ELLIOT AVE Minneapolis, MN",44.95733,-93.26133
"49TH AVE N / KNOX AVE N Minneapolis, MN",45.04392,-93.30295
"DOWLING AVE N / UPTON AVE N Minneapolis, MN",45.0241,-93.31469
"4016 BLOOMINGTON AVE Minneapolis, MN",44.929915,-93.253282
"1320 LAGOON AVE Minneapolis, MN",44.949536,-93.296853
"15TH AVE NE / UNIVERSITY AVE NE Minneapolis, MN",45.00308,-93.2631
"3RD AVE S / WASHINGTON AVE S Minneapolis, MN",44.980205,-93.26392
"38TH ST E / PORTLAND AVE Minneapolis, MN",44.93417,-93.26754
"2451 NICOLLET AVE Minneapolis, MN",44.957462,-93.277684
"1301 2ND AVE S Minneapolis, MN",44.969399,-93.273723
"1404 19TH ST E Minneapolis, MN",44.964107,-93.25502
"42ND AVE S / LAKE ST E Minneapolis, MN",44.94836,-93.21274
"3341 42ND AVE S Minneapolis, MN",44.941759,-93.21235
"1400 5TH ST SE Minneapolis, MN",44.980949,-93.234968
"5719 CHICAGO AVE Minneapolis, MN",44.89905,-93.26236
"1920 11TH AVE S Minneapolis, MN",44.9633,-93.25862
"621 MALCOLM AVE SE Minneapolis, MN",44.97397366,-93.21120189
"WEST RIVER PKWY / FRANKLIN AVE E Minneapolis, MN",44.962765,-93.224495
"3227 6TH ST N Minneapolis, MN",45.014012,-93.286917
"6TH ST NE / WASHINGTON ST NE Minneapolis, MN",44.9974,-93.25753
"6TH ST NE / 3RD AVE NE Minneapolis, MN",44.99263,-93.25424
"5300 BLOCK SOUTH MINNEHAHA PARK DR Minneapolis, MN",44.9067,-93.20466
"25TH ST E / 5TH AVE S Minneapolis, MN",44.95731,-93.26894
"2438 16TH AVE S Minneapolis, MN",44.95779,-93.25146
"38TH ST E / 13TH AVE S Minneapolis, MN",44.93415,-93.25616
"42ND ST E / PARK AVE Minneapolis, MN",44.92694,-93.26504
"5801 NICOLLET AVE Minneapolis, MN",44.897695,-93.27751
"3238 STINSON BLVD NE Minneapolis, MN",45.027027,-93.227239
"32ND ST W / ALDRICH AVE S Minneapolis, MN",44.94471,-93.28941
"3019 MINNEHAHA AVE Minneapolis, MN",44.9477435,-93.23348117
"80 8TH ST S Minneapolis, MN",44.975985,-93.272342
"1750 HENNEPIN AVE Minneapolis, MN",44.96781,-93.28851
"14TH AVE N / 2ND ST N Minneapolis, MN",44.99311,-93.27985
"3501 FREMONT AVE N Minneapolis, MN",45.01871,-93.29595
"2538 CENTRAL AVE NE Minneapolis, MN",45.014611,-93.247768
"37TH ST E / MINNEHAHA AVE Minneapolis, MN",44.93573,-93.22505
"2800 GIRARD AVE S Minneapolis, MN",44.9515995,-93.29725667
"829 LYNDALE PL Minneapolis, MN",44.98678,-93.29017
"1104 LAGOON AVE Minneapolis, MN",44.949817,-93.293814
"24 30TH AVE NE Minneapolis, MN",45.02211639,-93.27259758
"WASHINGTON AVE SE / OAK ST SE Minneapolis, MN",44.97371,-93.2271
"EAST LAKE CALHOUN PKWY / LAKE ST W Minneapolis, MN",44.95107,-93.30566
"34TH ST W / HENNEPIN AVE Minneapolis, MN",44.94131,-93.29838
"13TH AVE S / FRANKLIN AVE E Minneapolis, MN",44.96274,-93.25678
"2012 BRYANT AVE S Minneapolis, MN",44.962083,-93.290878
"4155 LYNDALE AVE N Minneapolis, MN",45.03106,-93.288446
"4740 CEDAR AVE S Minneapolis, MN",44.916503,-93.247808
"3000 WEST LAKE CALHOUN PKWY Minneapolis, MN",44.94868044,-93.31651202
"31ST ST E / 2ND AVE S Minneapolis, MN",44.94665,-93.27415
"1420 PORTLAND AVE Minneapolis, MN",44.96821,-93.26812
"3219 PENN AVE N Minneapolis, MN",45.013839,-93.308614
"2632 3RD AVE S Minneapolis, MN",44.95425,-93.27315
"44TH AVE N / QUEEN AVE N Minneapolis, MN",45.03544,-93.31039
"4526 CAMDEN AVE N Minneapolis, MN",45.037556,-93.288502
"1ST AVE S / 31ST ST E Minneapolis, MN",44.94666,-93.27665
"2708 2ND AVE S Minneapolis, MN",44.95334,-93.27443
"9TH ST S / RIVERSIDE AVE Minneapolis, MN",44.96402,-93.23267
"1169 14TH AVE SE Minneapolis, MN",44.992911,-93.232411
"2714 POLK ST NE Minneapolis, MN",45.017315,-93.245925
"831 HENNEPIN AVE E Minneapolis, MN",44.991631,-93.246463
"31ST ST W / PILLSBURY AVE Minneapolis, MN",44.94659,-93.28137
"31ST ST E / 14TH AVE S Minneapolis, MN",44.94656,-93.25505
"17TH AVE S / 26TH ST E Minneapolis, MN",44.95554,-93.2499
"1715 STEVENS AVE Minneapolis, MN",44.965747,-93.274949
"4235 IRVING AVE N Minneapolis, MN",45.032505,-93.299939
"36TH ST W / NICOLLET AVE Minneapolis, MN",44.93773,-93.27794
"OLSON MEMORIAL HWY / BRYANT AVE N Minneapolis, MN",44.98409,-93.29097
"9TH ST S / LASALLE AVE Minneapolis, MN",44.97562,-93.27526
"2741 COLUMBUS AVE Minneapolis, MN",44.952446,-93.263546
"1415 HENNEPIN AVE Minneapolis, MN",44.97325,-93.283582
"43RD ST W / NICOLLET AVE Minneapolis, MN",44.92506,-93.27794
"16TH AVE N / FREMONT AVE N Minneapolis, MN",44.99523,-93.29565
"NEW BRIGHTON BLVD / QUARRY CENTER DR Minneapolis, MN",45.00281,-93.22973
"BROADWAY ST NE / UNIVERSITY AVE NE Minneapolis, MN",44.9987,-93.26326
"3327 KNOX AVE N Minneapolis, MN",45.01584,-93.30227
"LAKE ST W / EAST LAKE CALHOUN PKWY Minneapolis, MN",44.94849,-93.30547
"2300 GARFIELD AVE Minneapolis, MN",44.9599,-93.28709
"3551 LYNDALE AVE S Minneapolis, MN",44.937911,-93.287797
"ROYALSTON AVE N / 5TH AVE N Minneapolis, MN",44.98286,-93.28319
"3509 ELLIOT AVE Minneapolis, MN",44.93916,-93.26093
"3100 BLOCK QUEEN AVE N Minneapolis, MN",45.01241337,-93.30942639
"23RD AVE S / 36HALF ST E Minneapolis, MN",44.93681,-93.2389
"CLINTON AVE / FRANKLIN AVE E Minneapolis, MN",44.96269,-93.2715
"HURON BLVD SE / FULTON ST SE Minneapolis, MN",44.97023,-93.22289
"2429 NICOLLET AVE Minneapolis, MN",44.958045,-93.277455
"3246 GIRARD AVE N Minneapolis, MN",45.014679,-93.29649
"330 2ND AVE S Minneapolis, MN",44.979268,-93.26702
"2323 11TH AVE S Minneapolis, MN",44.95961,-93.25713
"14TH AVE NE / MARSHALL ST NE Minneapolis, MN",45.00122,-93.27078
"DUNWOODY BLVD / 17TH ST N Minneapolis, MN",44.97213,-93.28694
"4222 33RD AVE S Minneapolis, MN",44.926104,-93.224671
"2818 EMERSON AVE N Minneapolis, MN",45.009164,-93.293956
"INTERSTATE 94 / WEST BROADWAY TO WB I94 Minneapolis, MN",45.07819167,-93.37658833
"29TH AVE NE / CENTRAL AVE NE Minneapolis, MN",45.02039,-93.24729
"14TH AVE N / MORGAN AVE N Minneapolis, MN",44.99305,-93.30446
"1525 PENN AVE N Minneapolis, MN",44.99486,-93.30859
"30TH AVE S / 9TH ST S Minneapolis, MN",44.96398,-93.22816
"2625 16TH AVE S Minneapolis, MN",44.954565,-93.250826
"2833 29TH AVE S Minneapolis, MN",44.95081083,-93.22979383
"842 GERTRUDE BROWN PL Minneapolis, MN",44.98554,-93.29109
"13TH AVE S / LAKE ST E Minneapolis, MN",44.94836,-93.25632
"6TH AVE SE / UNIVERSITY AVE SE Minneapolis, MN",44.98394,-93.24765
"2436 OAKLAND AVE Minneapolis, MN",44.95816,-93.26676
"WASHINGTON AVE S / 11TH AVE S Minneapolis, MN",44.97549,-93.25308
"BLAISDELL AVE / LAKE ST W Minneapolis, MN",44.94836,-93.27969
"LOWRY AVE NE / 6TH ST NE Minneapolis, MN",45.01317,-93.25916
"2910 FRANKLIN AVE E Minneapolis, MN",44.96309333,-93.22907
"2739 NICOLLET AVE Minneapolis, MN",44.952484,-93.277587
"2429 LYNDALE AVE S Minneapolis, MN",44.958214,-93.28749
"52ND ST E / 14TH AVE S Minneapolis, MN",44.90887,-93.25499
"42ND ST E / STEVENS AVE Minneapolis, MN",44.92687,-93.27532
"2650 HENNEPIN AVE Minneapolis, MN",44.95412,-93.297944
"3516 CHICAGO AVE Minneapolis, MN",44.93886,-93.26292
"4236 1ST AVE S Minneapolis, MN",44.92574,-93.27699
"49TH ST E / WOODLAWN BLVD Minneapolis, MN",44.9144,-93.23349
"800 28TH ST E Minneapolis, MN",44.954319,-93.261444
"1906 6TH ST S Minneapolis, MN",44.9678675,-93.24521033
"26TH ST W / COLFAX AVE S Minneapolis, MN",44.95553,-93.29187
"2325 JACKSON ST NE Minneapolis, MN",45.0112503,-93.24906043
"4209 LYNDALE AVE N Minneapolis, MN",45.03167744,-93.28813912
"ONTARIO ST SE / WASHINGTON AVE SE Minneapolis, MN",44.97354,-93.22566
"5807 IRVING AVE S Minneapolis, MN",44.897423,-93.299446
"2014 GLENWOOD AVE Minneapolis, MN",44.980996,-93.306515
"921 24TH AVE NE Minneapolis, MN",45.01221497,-93.24824
"15TH ST W / LYNDALE AVE S Minneapolis, MN",44.96891,-93.287785
"4315 LOGAN AVE N Minneapolis, MN",45.03383,-93.30378
"35TH ST W / ALDRICH AVE S Minneapolis, MN",44.9395,-93.28948
"4313 UPTON AVE S Minneapolis, MN",44.92413,-93.31453
"900 2ND AVE S Minneapolis, MN",44.973642,-93.271896
"EAST LYNDALE AVE N / GLENWOOD AVE Minneapolis, MN",44.97941,-93.28674
"2308 50TH ST W Minneapolis, MN",44.912557,-93.309145
"HENNEPIN AVE E / PIERCE ST NE Minneapolis, MN",44.99149,-93.24096
"17TH AVE N / RUSSELL AVE N Minneapolis, MN",44.99695,-93.31076
"22ND ST W / PILLSBURY AVE Minneapolis, MN",44.96089,-93.28127
"33RD ST W / LYNDALE AVE S Minneapolis, MN",44.94291,-93.28821
"100 BLOCK 24TH ST W Minneapolis, MN",44.95914497,-93.27980382
"2707 HUMBOLDT AVE S Minneapolis, MN",44.95333,-93.29892
"SB I35W TO WASHINGTON AVE S / WASHINGTON AVE S Minneapolis, MN",44.85862,-93.39842
"210 DELAWARE ST SE Minneapolis, MN",44.972372,-93.236956
"1019 15TH AVE SE Minneapolis, MN",44.98844,-93.23113
"2845 HARRIET AVE Minneapolis, MN",44.950605,-93.284901
"710 LOWRY AVE N Minneapolis, MN",45.01333,-93.28852
"26TH ST E / 1ST AVE S Minneapolis, MN",44.95551,-93.27657
"HARVARD ST SE / DELAWARE ST SE Minneapolis, MN",44.97253,-93.23028
"PORTLAND AVE / 8TH ST S Minneapolis, MN",44.97248,-93.26488
"LYNDALE AVE N / 7TH ST N Minneapolis, MN",44.98723,-93.288
"28TH ST W / XERXES AVE S Minneapolis, MN",44.95197,-93.31858
"3618 4TH ST N Minneapolis, MN",45.020883,-93.284566
"NICOLLET AVE / GROVELAND AVE Minneapolis, MN",44.96418,-93.2778
"11TH AVE NE / MAIN ST NE Minneapolis, MN",44.99855,-93.26726
"215 7TH ST NE Minneapolis, MN",44.992691,-93.25200283
"27TH ST E / CHICAGO AVE Minneapolis, MN",44.95373,-93.26261
"38TH ST E / 4TH AVE S Minneapolis, MN",44.93416,-93.27012
"3005 5TH AVE S Minneapolis, MN",44.947865,-93.268672
"4103 FREMONT AVE N Minneapolis, MN",45.02972,-93.29608
"2828 CHICAGO AVE Minneapolis, MN",44.950964,-93.263052
"45TH AVE N / LYNDALE AVE N Minneapolis, MN",45.03691,-93.28782
"17 WASHINGTON AVE N Minneapolis, MN",44.982381,-93.270097
"38TH ST W / NICOLLET AVE Minneapolis, MN",44.93412,-93.27792
"515 14TH AVE SE Minneapolis, MN",44.98211183,-93.23510683
"1601 LAKE ST W Minneapolis, MN",44.9482,-93.302282
"23RD ST E / 13TH AVE S Minneapolis, MN",44.96005,-93.25614
"91 FOREST DALE Minneapolis, MN",44.906278,-93.31379
"4535 LYNDALE AVE N Minneapolis, MN",45.03785083,-93.28790067
"35TH ST E / CHICAGO AVE Minneapolis, MN",44.93957,-93.26255
"37TH AVE N / COLFAX AVE N Minneapolis, MN",45.02214,-93.29182
"37TH AVE N / GIRARD AVE N Minneapolis, MN",45.02218,-93.29687
"HENNEPIN AVE / DUNWOODY BLVD Minneapolis, MN",44.97238,-93.28615
"2721 DUPONT AVE S Minneapolis, MN",44.9530325,-93.29289733
"41ST ST E / CHICAGO AVE Minneapolis, MN",44.92875,-93.26249
"2933 CLINTON AVE Minneapolis, MN",44.94891,-93.27119
"2220 2ND ST NE Minneapolis, MN",45.01082,-93.26655
"DUPONT AVE S / 24TH ST W Minneapolis, MN",44.95912,-93.2931
"DOWLING AVE N / MORGAN AVE N Minneapolis, MN",45.02408,-93.30451
"2632 4TH ST N Minneapolis, MN",45.007006,-93.284501
"31ST ST E / 5TH AVE S Minneapolis, MN",44.94666,-93.26901
"4421 1ST AVE S Minneapolis, MN",44.922521,-93.276285
"800 LOWRY AVE NE Minneapolis, MN",45.013023,-93.250648
"BRYANT AVE N / 46TH AVE N Minneapolis, MN",45.03848,-93.29144
"1825 CLINTON AVE Minneapolis, MN",44.964242,-93.271122
"815 UPTON AVE N Minneapolis, MN",44.98658,-93.315
"811 UPTON AVE N Minneapolis, MN",44.98647,-93.315
"3701 17TH AVE S Minneapolis, MN",44.935793,-93.249492
"2918 CHICAGO AVE Minneapolis, MN",44.949553,-93.263002
"56TH ST W / PENN AVE S Minneapolis, MN",44.90154,-93.30866
"10TH AVE S / 24TH ST E Minneapolis, MN",44.95912,-93.26002
"1915 LYNDALE AVE S Minneapolis, MN",44.963574,-93.287699
"3012 PLEASANT AVE Minneapolis, MN",44.9478,-93.2834
"2114 QUEEN AVE N Minneapolis, MN",45.001017,-93.309126
"7TH ST S / 19TH AVE S Minneapolis, MN",44.96662,-93.24568
"10TH ST S / NICOLLET MALL Minneapolis, MN",44.97398,-93.27469
"25TH ST E / 30TH AVE S Minneapolis, MN",44.95736,-93.22829
"3832 ZENITH AVE S Minneapolis, MN",44.90508838,-93.32070651
"2530 18TH AVE S Minneapolis, MN",44.95624,-93.24896
"HIAWATHA AVE / 28TH ST E Minneapolis, MN",44.95196,-93.24089
"4604 MINNEHAHA AVE Minneapolis, MN",44.919383,-93.215215
"15 1ST ST S Minneapolis, MN",44.983108,-93.266613
"27TH ST W / GIRARD AVE S Minneapolis, MN",44.95372,-93.29698
"2710 LAKE ST W Minneapolis, MN",44.9504,-93.31426
"2931 26TH AVE S Minneapolis, MN",44.949079,-93.233629
"1ST AVE NE / 6TH ST NE Minneapolis, MN",44.99051,-93.25276
"2374 WEST LAKE OF THE ISLES PKWY Minneapolis, MN",44.960026,-93.308871
"2300 ELLIOT AVE Minneapolis, MN",44.95987,-93.26151
"10TH AVE S / 29TH ST E Minneapolis, MN",44.95009,-93.26012
"818 DUNWOODY BLVD Minneapolis, MN",44.972967,-93.290214
"3200 MINNEHAHA AVE Minneapolis, MN",44.94455,-93.23195
"13TH AVE SE / 4TH ST SE Minneapolis, MN",44.98105,-93.23718
"1520 JOHNSON ST NE Minneapolis, MN",45.002955,-93.238685
"2300 15TH AVE S Minneapolis, MN",44.95991333,-93.25403167
"5217 SHERIDAN AVE N Minneapolis, MN",45.04996,-93.31349
"PENN AVE S / 58TH ST W Minneapolis, MN",44.89793,-93.30867
"3420 PARK AVE Minneapolis, MN",44.940532,-93.26553
"2000 GRAND AVE S Minneapolis, MN",44.962524,-93.28455
"3844 23RD AVE S Minneapolis, MN",44.93276,-93.2388
"36TH ST W / BLAISDELL AVE Minneapolis, MN",44.93772,-93.27975
"26TH AVE SE / DELAWARE ST SE Minneapolis, MN",44.97189,-93.22078
"2727 OLIVER AVE N Minneapolis, MN",45.008661,-93.307315
"1825 EMERSON AVE N Minneapolis, MN",44.99828,-93.29452
"4TH AVE S / 36TH ST E Minneapolis, MN",44.93776,-93.27017
"24TH ST W / ALDRICH AVE S Minneapolis, MN",44.95912,-93.2893
"4525 NICOLLET AVE Minneapolis, MN",44.920605,-93.277551
"WEST RIVER RD N / BROADWAY AVE W Minneapolis, MN",44.99909,-93.27761
"17TH AVE N / SHERIDAN AVE N Minneapolis, MN",44.99696,-93.31205
"22ND AVE NE / 2ND ST NE Minneapolis, MN",45.01007,-93.26618
"615 19TH ST E Minneapolis, MN",44.963732,-93.266751
"330 1ST AVE N Minneapolis, MN",44.981741,-93.272689
"GIRARD AVE N / BROADWAY AVE W Minneapolis, MN",44.99916,-93.29717
"229 BROADWAY AVE W Minneapolis, MN",44.998918,-93.281434
"4TH AVE N / BRYANT AVE N Minneapolis, MN",44.98167,-93.29082
"3RD ST N / 1ST AVE N Minneapolis, MN",44.98207,-93.27139
"2543 EMERSON AVE S Minneapolis, MN",44.956024,-93.294046
"ALDRICH AVE N / 33RD AVE N Minneapolis, MN",45.01491,-93.28928
"ELLIOT AVE / 15TH ST E Minneapolis, MN",44.96798,-93.26105
"26TH ST W / BLAISDELL AVE Minneapolis, MN",44.95552,-93.27964
"22ND ST E / 17TH AVE S Minneapolis, MN",44.96092,-93.24983
"2120 BROADWAY AVE W Minneapolis, MN",45.00378,-93.30753
"15TH AVE SE / ROLLINS AVE SE Minneapolis, MN",44.98537,-93.23037
"515 5TH ST SE Minneapolis, MN",44.9864155,-93.246616
"1428 4TH ST NE Minneapolis, MN",45.002943,-93.261842
"3530 RUSSELL AVE N Minneapolis, MN",45.01956,-93.310448
"1021 24TH AVE SE Minneapolis, MN",44.98859,-93.21934
"1500 FILLMORE ST NE Minneapolis, MN",45.004544,-93.244172
"35TH AVE N / LYNDALE AVE N Minneapolis, MN",45.01851,-93.28802
"3333 UNIVERSITY AVE SE Minneapolis, MN",44.96899,-93.209513
"BROADWAY AVE W / THOMAS AVE N Minneapolis, MN",45.00782,-93.31344
"4445 CHOWEN AVE S Minneapolis, MN",44.921707,-93.325084
"2ND AVE N / COLFAX AVE N Minneapolis, MN",44.97896,-93.29151
"EMERSON AVE S / 34TH ST W Minneapolis, MN",44.94131,-93.29453
"2030 WILLOW AVE N Minneapolis, MN",45.004464,-93.30674
"3630 EMERSON AVE N Minneapolis, MN",45.021254,-93.293982
"2216 HOWARD ST NE Minneapolis, MN",45.01058,-93.25345
"35TH ST W / LYNDALE AVE S Minneapolis, MN",44.93951,-93.28824
"6023 NICOLLET AVE Minneapolis, MN",44.893546,-93.277747
"5TH AVE S / 5TH AVE TO EB I94 S Minneapolis, MN",44.872235,-93.039915
"301 ROYALSTON AVE N Minneapolis, MN",44.980915,-93.283821
"1000 BLOCK 7TH ST N Minneapolis, MN",44.98934565,-93.29045408
"22ND ST W / NICOLLET AVE Minneapolis, MN",44.96089,-93.27781
"9TH ST S / HENNEPIN AVE Minneapolis, MN",44.9764,-93.277
"3457 CENTRAL AVE NE Minneapolis, MN",45.031053,-93.24694533
"47TH ST W / XERXES AVE S Minneapolis, MN",44.9179,-93.31888
"930 UNIVERSITY AVE SE Minneapolis, MN",44.98170817,-93.24249033
"13TH AVE SE / 7TH ST SE Minneapolis, MN",44.98399,-93.23481
"3900 EMERSON AVE N Minneapolis, MN",45.025928,-93.294037
"36TH AVE S / 36TH ST E Minneapolis, MN",44.93781,-93.22039
"113 WEST MINNEHAHA PKWY Minneapolis, MN",44.90517,-93.28125
"2549 BLAISDELL AVE Minneapolis, MN",44.95576,-93.27926
"3209 SNELLING AVE Minneapolis, MN",44.94452,-93.23276
"1511 LAKE ST E Minneapolis, MN",44.948182,-93.253412
"6TH ST SE / HENNEPIN AVE E Minneapolis, MN",44.9895,-93.25189
"22ND ST E / BLOOMINGTON AVE Minneapolis, MN",44.96092,-93.25232
"815 LAKE ST W Minneapolis, MN",44.948228,-93.290095
"2210 EMERSON AVE N Minneapolis, MN",45.001871,-93.29371
"HARMON PL / 11TH ST S Minneapolis, MN",44.97432,-93.27831
"3000 BLOCK OAKLAND AVE Minneapolis, MN",44.94823249,-93.26654193
"4121 HIAWATHA AVE Minneapolis, MN",44.928238,-93.223906
"36TH ST E / CEDAR AVE S Minneapolis, MN",44.93773,-93.24736
"127 5TH ST NE Minneapolis, MN",44.99079667,-93.25430167
"3115 ALDRICH AVE S Minneapolis, MN",44.94603,-93.28906
"EXCELSIOR BLVD / 32ND ST W Minneapolis, MN",44.94501,-93.32338
"4TH ST NE / 13TH AVE NE Minneapolis, MN",45.0009,-93.26157
"618 17TH ST E Minneapolis, MN",44.966863,-93.266426
"PLYMOUTH AVE N / WEST RIVER PKWY N Minneapolis, MN",44.9923,-93.2755
"61ST ST W / PILLSBURY AVE Minneapolis, MN",44.89232,-93.28194
"318 6TH AVE NE Minneapolis, MN",44.99454,-93.25966
"2618 KNOX AVE N Minneapolis, MN",45.0066,-93.301531
"3000 HUMBOLDT AVE N Minneapolis, MN",45.011514,-93.297746
"LAKE ST E / 33RD AVE S Minneapolis, MN",44.94838,-93.2243
"31ST ST E / 16TH AVE S Minneapolis, MN",44.94656,-93.25122
"34TH AVE N / OLIVER AVE N Minneapolis, MN",45.01684,-93.30697
"19TH AVE NE / NEW BRIGHTON BLVD Minneapolis, MN",45.00777,-93.22511
"HAWTHORNE AVE / 10TH ST N Minneapolis, MN",44.97676,-93.27868
"WASHINGTON AVE N / BROADWAY AVE W Minneapolis, MN",44.99919,-93.28193
"LOWRY AVE N / COLFAX AVE N Minneapolis, MN",45.01314,-93.29164
"7TH ST N / 11TH AVE N Minneapolis, MN",44.98987,-93.29144
"4TH ST N / 2ND AVE N Minneapolis, MN",44.98205,-93.27366
"4900 BRYANT AVE N Minneapolis, MN",45.04407,-93.291099
"PENN AVE S / 54TH ST W Minneapolis, MN",44.90512,-93.30864
"2929 BLOOMINGTON AVE Minneapolis, MN",44.949219,-93.252103
"40 WILLIAMS AVE SE Minneapolis, MN",44.97012,-93.21761
"18TH AVE S / LAKE ST E Minneapolis, MN",44.94837,-93.24868
"2636 1ST AVE S Minneapolis, MN",44.954229,-93.276949
"18TH AVE SE / HENNEPIN AVE E Minneapolis, MN",44.99131,-93.22712
"1835 PENN AVE N Minneapolis, MN",44.99543895,-93.3082759
"45TH AVE N / BRYANT AVE N Minneapolis, MN",45.0367,-93.29141
"3106 BLOOMINGTON AVE Minneapolis, MN",44.946222,-93.252881
"WASHINGTON AVE N / 5TH AVE N Minneapolis, MN",44.98609,-93.27471
"700 BROADWAY AVE W Minneapolis, MN",44.999761,-93.288259
"4813 CHICAGO AVE Minneapolis, MN",44.91559,-93.26234
"3510 QUEEN AVE N Minneapolis, MN",45.019012,-93.309184
"1110 15TH ST E Minneapolis, MN",44.96835,-93.25764
"1801 NICOLLET AVE Minneapolis, MN",44.964973,-93.277516
"2315 PIERCE ST NE Minneapolis, MN",45.011934,-93.240614
"XERXES AVE S / 50TH ST W Minneapolis, MN",44.91245,-93.31886
"PORTLAND AVE / 18TH ST E Minneapolis, MN",44.96509,-93.26767
"331 RIDGEWOOD AVE Minneapolis, MN",44.9634,-93.2839
"STINSON BLVD NE / NEW BRIGHTON BLVD Minneapolis, MN",45.09259,-93.22777
"3527 CEDAR AVE S Minneapolis, MN",44.9385206,-93.24730401
"3310 FREMONT AVE S Minneapolis, MN",44.94255,-93.29616
"2600 CEDAR AVE S Minneapolis, MN",44.95534,-93.24774
"1819 15TH AVE S Minneapolis, MN",44.964057,-93.253603
"2312 6TH ST N Minneapolis, MN",45.003142,-93.286032
"25TH ST E / PORTLAND AVE Minneapolis, MN",44.95732,-93.26767
"1615 DOWLING AVE N Minneapolis, MN",45.02345333,-93.30040967
"1400 PORTLAND AVE Minneapolis, MN",44.968715,-93.268122
"24TH ST W / PILLSBURY AVE Minneapolis, MN",44.9591,-93.28128
"4610 COLFAX AVE N Minneapolis, MN",45.038817,-93.292335
"45TH ST E / NOKOMIS AVE S Minneapolis, MN",44.92145,-93.22833
"2623 BROADWAY AVE W Minneapolis, MN",45.00825217,-93.31419833
"6TH ST S / CHICAGO AVE Minneapolis, MN",44.97323,-93.26056
"26TH AVE NE / UNIVERSITY AVE NE Minneapolis, MN",45.01497,-93.26316
"200 LAKE ST W Minneapolis, MN",44.948675,-93.281655
"5TH ST N / 7TH AVE N Minneapolis, MN",44.9856,-93.28101
"1323 8TH ST SE Minneapolis, MN",44.984862,-93.232942
"27TH AVE N / RUSSELL AVE N Minneapolis, MN",45.00781,-93.31077
"29TH ST W / BLAISDELL AVE Minneapolis, MN",44.95074,-93.27967
"31ST ST E / 3RD AVE S Minneapolis, MN",44.94664,-93.27284
"5028 CAMDEN AVE N Minneapolis, MN",45.046828,-93.288543
"3200 LYNDALE AVE S Minneapolis, MN",44.944503,-93.288734
"41ST ST E / LONGFELLOW AVE Minneapolis, MN",44.92873,-93.24607
"500 CENTRAL AVE SE Minneapolis, MN",44.988878,-93.252929
"30TH AVE N / QUEEN AVE N Minneapolis, MN",45.01144,-93.30949
"3335 BLAISDELL AVE Minneapolis, MN",44.942068,-93.279334
"35TH AVE N / FREMONT AVE N Minneapolis, MN",45.01856,-93.2956
"24TH ST E / 13TH AVE S Minneapolis, MN",44.95912,-93.25615
"4534 NICOLLET AVE Minneapolis, MN",44.92034417,-93.27815267
"3RD ST S / PARK AVE Minneapolis, MN",44.97672,-93.25948
"920 LAKE ST E Minneapolis, MN",44.949342,-93.260722
"1104 BROADWAY AVE W Minneapolis, MN",44.99939,-93.29434
"1520 NEW BRIGHTON BLVD Minneapolis, MN",45.005311,-93.234237
"800 QUEEN AVE N Minneapolis, MN",44.98625283,-93.30954333
"GARFIELD AVE / 25TH ST W Minneapolis, MN",44.95731,-93.28676
"2105 LYNDALE AVE S Minneapolis, MN",44.961344,-93.287592
"3236 GARFIELD AVE Minneapolis, MN",44.94359,-93.28721
"3616 PENN AVE N Minneapolis, MN",45.02137,-93.307914
"4TH ST S / NICOLLET MALL Minneapolis, MN",44.97979,-93.26979
"BORDER AVE N / 3RD AVE N Minneapolis, MN",44.98074,-93.28528
"2200 LYNDALE AVE S Minneapolis, MN",44.960462,-93.288432
"41 12TH ST N Minneapolis, MN",44.976364,-93.282001
"4141 LYNDALE AVE N Minneapolis, MN",45.030539,-93.288421
"EMERSON AVE S / 32ND ST W Minneapolis, MN",44.94472,-93.29451
"2914 HENNEPIN AVE Minneapolis, MN",44.94863,-93.298628
"623 25TH AVE N Minneapolis, MN",45.00473833,-93.28770333
"24TH ST W / HARRIET AVE Minneapolis, MN",44.9591,-93.28547
"3501 JAMES AVE N Minneapolis, MN",45.01874,-93.30099
"LAGOON AVE / EAST LAKE CALHOUN PKWY Minneapolis, MN",44.94838,-93.29247
"2900 HENNEPIN AVE Minneapolis, MN",44.949109,-93.298643
"BLOOMINGTON AVE / LAKE ST E Minneapolis, MN",44.94836,-93.25248
"13TH AVE NE / FILLMORE ST NE Minneapolis, MN",45.00081,-93.24226
"CENTRAL AVE SE / 2ND ST SE Minneapolis, MN",44.9858,-93.25563
"1001 2ND AVE S Minneapolis, MN",44.972054,-93.271644
"4753 5TH AVE S Minneapolis, MN",44.916376,-93.268676
"37TH AVE NE / CENTRAL AVE NE Minneapolis, MN",45.03555,-93.2472
"24TH ST W / HENNEPIN AVE Minneapolis, MN",44.95913,-93.2941
"VINCENT AVE N / 44TH AVE N Minneapolis, MN",45.03544,-93.31624
"4928 CAMDEN AVE N Minneapolis, MN",45.045067,-93.288534
"511 4TH AVE SE Minneapolis, MN",44.98762,-93.24914
"2440 HENNEPIN AVE Minneapolis, MN",44.957946,-93.296065
"HOOVER ST NE / KENNEDY ST NE Minneapolis, MN",44.99526,-93.21772
"RIVERSIDE AVE / 24TH AVE S Minneapolis, MN",44.96631,-93.23804
"2100 LAKE ST E Minneapolis, MN",44.94856,-93.241849
"10TH ST S / PARK AVE Minneapolis, MN",44.96989,-93.2651
"2515 9TH ST S Minneapolis, MN",44.963672,-93.234496
"8TH AVE N / SHERIDAN AVE N Minneapolis, MN",44.9861,-93.31211
"YORK AVE S / 50TH ST W Minneapolis, MN",44.91246,-93.3201
"3RD AVE S / 35TH ST E Minneapolis, MN",44.93956,-93.27276
"2910 DUPONT AVE N Minneapolis, MN",45.009898,-93.292697
"2300 PIERCE ST NE Minneapolis, MN",45.011519,-93.241289
"2713 1ST AVE S Minneapolis, MN",44.95319,-93.27626
"32ND ST W / GIRARD AVE S Minneapolis, MN",44.94472,-93.29706
"29TH ST E / 42ND AVE S Minneapolis, MN",44.95015,-93.21273
"2221 PENN AVE N Minneapolis, MN",45.00225,-93.30856
"LAKE ST E / 10TH AVE S Minneapolis, MN",44.94836,-93.26012
"2816 16TH AVE S Minneapolis, MN",44.951337,-93.251562
"2832 EMERSON AVE S Minneapolis, MN",44.950741,-93.29500033
"28TH ST E / COLUMBUS AVE Minneapolis, MN",44.95194,-93.2639
"1600 GIRARD AVE N Minneapolis, MN",44.99542,-93.29675
"3235 4TH ST N Minneapolis, MN",45.01422117,-93.28525117
"2737 HENNEPIN AVE Minneapolis, MN",44.952633,-93.297727
"28TH ST W / IRVING AVE S Minneapolis, MN",44.95261,-93.30125
"36TH ST E / 2ND AVE S Minneapolis, MN",44.93774,-93.27409
"3240 PORTLAND AVE Minneapolis, MN",44.943541,-93.268114
"2024 29TH AVE S Minneapolis, MN",44.96189,-93.23028
"LYNDALE AVE W / 49TH AVE N Minneapolis, MN",45.04393,-93.28398
"1800 NICOLLET AVE Minneapolis, MN",44.96698,-93.27742833
"26TH AVE N / DUPONT AVE N Minneapolis, MN",45.00593,-93.29259
"2838 16TH AVE S Minneapolis, MN",44.950769,-93.251567
"1250 BROADWAY AVE W Minneapolis, MN",44.999697,-93.296567
"1320 LAKE ST W Minneapolis, MN",44.948555,-93.296801
"4825 SOUTH MINNEHAHA PARK DR Minneapolis, MN",44.9156663,-93.30124555
"1440 LAKE ST W Minneapolis, MN",44.948673,-93.299604
"3438 PLEASANT AVE Minneapolis, MN",44.9399765,-93.28343033
"36TH AVE N / DUPONT AVE N Minneapolis, MN",45.02033,-93.29308
"4435 LYNDALE AVE N Minneapolis, MN",45.036434,-93.288361
"3631 GIRARD AVE N Minneapolis, MN",45.02125,-93.29719
"BLAISDELL AVE / 33RD ST W Minneapolis, MN",44.94292,-93.27972
"2653 LYNDALE AVE N Minneapolis, MN",45.007515,-93.288368
"324 BROADWAY AVE W Minneapolis, MN",44.99929583,-93.28458067
"1517 LASALLE AVE Minneapolis, MN",44.96704983,-93.278963
"PILLSBURY AVE / 36TH ST W Minneapolis, MN",44.93772,-93.2814
"2104 4TH AVE S Minneapolis, MN",44.96154,-93.27048
"PARK AVE S/28TH ST E Minneapolis, MN",44.95194,-93.26515
"920 19TH ST E Minneapolis, MN",44.96413833,-93.25996667
"29TH AVE N / LOGAN AVE N Minneapolis, MN",45.0096,-93.30313
"1000 PLYMOUTH AVE N Minneapolis, MN",44.992551,-93.292901
"NOKOMIS AVE S / EAST MINNEHAHA PKWY Minneapolis, MN",44.91641,-93.22837
"34TH AVE N / MORGAN AVE N Minneapolis, MN",45.01683,-93.30444
"39TH ST W / LYNDALE AVE S Minneapolis, MN",44.93225,-93.28826
"COLFAX AVE S / WEST MINNEHAHA PKWY Minneapolis, MN",44.90853,-93.2921
"LAKE ST E / 1ST AVE S Minneapolis, MN",44.94836,-93.27663
"2404 STEVENS AVE Minneapolis, MN",44.958794,-93.27566
"36TH ST E / 10TH AVE S Minneapolis, MN",44.93775,-93.25999
"2101 4TH ST N Minneapolis, MN",45.000385,-93.285369
"1600 LAGOON AVE Minneapolis, MN",44.94930497,-93.29983501
"5761 33RD AVE S Minneapolis, MN",44.898342,-93.22385
"5356 1ST AVE S Minneapolis, MN",44.90546,-93.27709
"304 LAKE ST E Minneapolis, MN",44.948834,-93.272445
"3000 MINNEHAHA AVE Minneapolis, MN",44.948044,-93.235084
"4134 FREMONT AVE N Minneapolis, MN",45.030816,-93.295402
"54TH ST W / LYNDALE AVE S Minneapolis, MN",44.90508,-93.28829
"3RD AVE S / 14TH ST E Minneapolis, MN",44.9689,-93.27158
"51ST AVE N / CAMDEN AVE N Minneapolis, MN",45.04751,-93.28893
"BRYANT AVE N / 49TH AVE N Minneapolis, MN",45.04393,-93.29145
"218 WASHINGTON AVE N Minneapolis, MN",44.984376,-93.271794
"1013 29TH ST E Minneapolis, MN",44.94994,-93.25989
"25HALF ST W / HENNEPIN AVE Minneapolis, MN",44.984331,-93.265378
"25TH ST E / BLOOMINGTON AVE Minneapolis, MN",44.95734,-93.2524
"36TH ST W / LYNDALE AVE S Minneapolis, MN",44.93769,-93.28826
"4012 VINCENT AVE S Minneapolis, MN",44.930012,-93.316426
"2817 GIRARD AVE S Minneapolis, MN",44.95128,-93.29661
"NICOLLET AVE / 24TH ST E Minneapolis, MN",44.95919,-93.27782
"3200 LAKE ST W Minneapolis, MN",44.948804,-93.319833
"2200 FRANKLIN AVE E Minneapolis, MN",44.963025,-93.240411
"8TH ST S / 3RD AVE S Minneapolis, MN",44.9742,-93.26898
"500 3RD ST S Minneapolis, MN",44.97820167,-93.26383167
"2400 CHICAGO AVE Minneapolis, MN",44.9590305,-93.26292467
"1ST AVE N / 7TH ST N Minneapolis, MN",44.97871,-93.2761
"FRANKLIN AVE W / BRYANT AVE S Minneapolis, MN",44.9627,-93.29053
"156 CEDAR LAKE RD N Minneapolis, MN",44.978401,-93.301266
"PENN AVE N / DOWLING AVE N Minneapolis, MN",45.0241,-93.30834
"FRANKLIN AVE E / 2ND AVE S Minneapolis, MN",44.96269,-93.27403
"1300 INDUSTRIAL BLVD Minneapolis, MN",45.001172,-93.212569
"3501 LONGFELLOW AVE Minneapolis, MN",44.939385,-93.245725
"4419 FRANCE AVE S Minneapolis, MN",44.921803,-93.328843
"2425 LYNDALE AVE S Minneapolis, MN",44.958315,-93.287606
"4331 1ST AVE S Minneapolis, MN",44.923998,-93.276279
"13TH AVE NE / MONROE ST NE Minneapolis, MN",45.00091,-93.25244
"1611 6TH ST S Minneapolis, MN",44.96741,-93.24885
"22ND ST W / BLAISDELL AVE Minneapolis, MN",44.96091,-93.27961
"DUPONT AVE S / 35TH ST W Minneapolis, MN",44.9395,-93.2933
"2649 BLAISDELL AVE Minneapolis, MN",44.953943,-93.279096
"725 VINELAND PL Minneapolis, MN",44.967992,-93.288748
"2ND AVE S / 1ST ST S Minneapolis, MN",44.98256,-93.26378
"2800 CENTRAL AVE NE Minneapolis, MN",45.01877,-93.25173333
"10TH AVE SE / 6TH ST SE Minneapolis, MN",44.98467,-93.23977
"24 8TH ST S Minneapolis, MN",44.976803,-93.274655
"PORTLAND AVE TO EB HWY62 / HIGHWAY 62 Minneapolis, MN",44.98038416,-93.25829583
"1007 FRANKLIN AVE W Minneapolis, MN",44.962557,-93.292208
"LAGOON AVE / HUMBOLDT AVE S Minneapolis, MN",44.94926,-93.30081
"28TH ST E / 12TH AVE S Minneapolis, MN",44.95194,-93.25754
"2650 16TH AVE S Minneapolis, MN",44.95387,-93.25151
"4949 PENN AVE S Minneapolis, MN",44.912716,-93.308334
"4445 16TH AVE S Minneapolis, MN",44.921988,-93.250777
"42ND AVE N / LYNDALE AVE N Minneapolis, MN",45.03151,-93.28808
"2114 DUPONT AVE N Minneapolis, MN",45.000803,-93.292149
"629 15TH ST E Minneapolis, MN",44.96781167,-93.26612
"24TH ST E / CHICAGO AVE Minneapolis, MN",44.95911,-93.26258
"5230 WASHBURN AVE N Minneapolis, MN",45.05032321,-93.31815615
"6TH ST S / 4TH AVE S Minneapolis, MN",44.97556,-93.26598
"14TH ST E / 11TH AVE S Minneapolis, MN",44.96885,-93.25817
"1035 22ND AVE SE Minneapolis, MN",44.988979,-93.221786
"CENTRAL AVE SE / UNIVERSITY AVE SE Minneapolis, MN",44.98681,-93.25484
"3245 FREMONT AVE N Minneapolis, MN",45.014668,-93.295938
"509 WASHINGTON AVE S Minneapolis, MN",44.978507,-93.260971
"2909 BRYANT AVE S Minneapolis, MN",44.949659,-93.290386
"LAKE ST W / GARFIELD AVE Minneapolis, MN",44.94835,-93.28682
"620 CENTRAL AVE NE Minneapolis, MN",44.990241,-93.251763
"54TH ST E / BLOOMINGTON AVE Minneapolis, MN",44.90527,-93.25245
